AdmGUIDValue_tab,DarInstitutionCode,DarBasisOfRecord,DarCatalogNumber,DarCollectorNumber,DarCollector,DarRelatedInformation,DarYearCollected,DarContinentOcean,DarCountry,DarStateProvince,DarCounty,DarLocality,DarMinimumElevation,DarMaximumElevation,DarDecimalLatitude,DarDecimalLongitude,DarGeorefMethod,DarCoordinateUncertaintyInMeter,DarIdentifiedBy,DarTypeStatus,DarScientificName,DarKingdom,DarPhylum,DarFamily,DarGenus,DarSpecies,DarSubspecies,DarSpecificEpithet,DarInfraspecificEpithet,DarInfraspecificRank,DarScientificNameAuthor
01c4cbc2-5a17-45af-8c38-8177751d9066,NY,PreservedSpecimen,2449872,14372,D. E. Atha,http://sweetgum.nybg.org/vh/specimen.php?irn=2624276,2014,North America,United States of America,New York,New York Co.,"Central Park, North Woods, between 108th and 109th Sts and between Lenox Ave and Adam Clayton Powell Jr Blvd",14,14,40.798,-73.9546,GPS,,D. E. Atha,,Stellaria media (L.) Vill.,Plantae,Magnoliophyta,Caryophyllaceae,Stellaria,media,,Species,,,
ddfcb572-2e55-4e95-b26c-fd3886524190,NY,PreservedSpecimen,2449873,14373,D. E. Atha,http://sweetgum.nybg.org/vh/specimen.php?irn=2624277,2014,North America,United States of America,New York,New York Co.,"Central Park, North Woods, between 108th and 109th Sts and between Lenox Ave and Adam Clayton Powell Jr Blvd",14,14,40.798,-73.9546,GPS,,D. E. Atha,,Stellaria media (L.) Vill.,Plantae,Magnoliophyta,Caryophyllaceae,Stellaria,media,,Species,,,
c12a1340-272b-4290-90de-30f92b037fdd,NY,PreservedSpecimen,2456405,14605,D. E. Atha,http://sweetgum.nybg.org/vh/specimen.php?irn=2652016,2014,North America,United States of America,New York,New York Co.,"Central Park.  Ramble, north of the Boathouse.  Between 76th and 77th Sts at about 6th Ave",52,52,40.7768,-73.9691,GPS,25,R. C. Moran,,Athyrium filix-femina (L.) Roth,Plantae,Pteridophyta,Athyriaceae,Athyrium,filix-femina,,Species,,,
8ea2952d-11a2-49aa-ac97-c6bd52952ef7,NY,PreservedSpecimen,2589611,15011,D. E. Atha,http://sweetgum.nybg.org/vh/specimen.php?irn=2911694,2015,North America,United States of America,New York,New York Co.,Central Park. Sheep Meadow.  Northeast of Mineral Springs. Between 70th and 71st Streets and between 6th and 7th Avenues,21,21,40.7732,-73.9728,GPS,,D. E. Atha,,Dennstaedtia punctilobula (Michx.) T.Moore,Plantae,Pteridophyta,Dennstaedtiaceae,Dennstaedtia,punctilobula,,Species,,,
1432d6b3-1b2a-4c7f-827a-c8c3be873643,NY,PreservedSpecimen,2589681,14981,D. E. Atha,http://sweetgum.nybg.org/vh/specimen.php?irn=2890748,2015,North America,United States of America,New York,New York Co.,"Central Park. North Woods, Ravine. Southwest of the Lasker Rink.  Between 105th and 106th Sts and between 6th and 7th Aves",49,49,40.7961,-73.9563,GPS,,D. E. Atha,,Polystichum acrostichoides (Michx.) Schott,Plantae,Pteridophyta,Dryopteridaceae,Polystichum,acrostichoides,,Species,,,
77de363b-794b-43db-81b3-606be328018b,NY,PreservedSpecimen,2457026,14926,D. E. Atha,http://sweetgum.nybg.org/vh/specimen.php?irn=2733255,2014,North America,United States of America,New York,New York Co.,Central Park. Great Hill. Between 102nd and 103rd St. and between 7th and 8th Aves,28,28,40.7952,-73.9597,GPS,25,D. E. Atha,,Vigna unguiculata (L.) Walp.,Plantae,Magnoliophyta,Fabaceae,Vigna,unguiculata,,Species,,,
9fc3ae08-6507-441c-94cd-9ccff5022f39,NY,PreservedSpecimen,2449874,14374,D. E. Atha,http://sweetgum.nybg.org/vh/specimen.php?irn=2624278,2014,North America,United States of America,New York,New York Co.,"Central Park, North Woods, between 108th and 109th Sts  and between Lenox Ave and Adam Clayton Powell Jr Blvd",14,14,40.7979,-73.9547,GPS,,C. S. Campbell,,Amelanchier sanguinea (Pursh) DC.,Plantae,Magnoliophyta,Rosaceae,Amelanchier,sanguinea,,Species,,,
4723f19b-83dc-4c09-8da1-a310cefdef6a,NY,PreservedSpecimen,2456314,14514,D. E. Atha,http://sweetgum.nybg.org/vh/specimen.php?irn=2643376,2014,North America,United States of America,New York,New York Co.,"Central Park, North Woods, between 108th and 109th Sts and between 6th and 7th Aves",14,14,40.7979,-73.9547,GPS,25,D. E. Atha,,Amelanchier sanguinea (Pursh) DC.,Plantae,Magnoliophyta,Rosaceae,Amelanchier,sanguinea,,Species,,,
52e9ee96-622f-414a-be0a-52743decc474,NY,PreservedSpecimen,9490,,,http://sweetgum.nybg.org/vh/specimen.php?irn=288326,1867,North America,United States of America,New York,New York Co.,Central Park,,,40.7823,-73.9654,GEOLocate Web Application,2545,,,Torreya taxifolia Arn.,Plantae,Pinophyta,Taxaceae,Torreya,taxifolia,,Species,,,
bf326b0b-e164-4e19-b094-3e3f0fc3de46,NY,PreservedSpecimen,9495,,,http://sweetgum.nybg.org/vh/specimen.php?irn=288331,1867,North America,United States of America,New York,New York Co.,Central Park,,,40.7823,-73.9654,GEOLocate Web Application,2545,,,Torreya taxifolia Arn.,Plantae,Pinophyta,Taxaceae,Torreya,taxifolia,,Species,,,
939707b8-a4ca-4546-9e71-9af6ff55297d,NY,PreservedSpecimen,2456481,14681,D. E. Atha,http://sweetgum.nybg.org/vh/specimen.php?irn=2681463,2014,North America,United States of America,New York,New York Co.,Central Park. 79th St Transverse.  At 81st St and between 7th and 8th Aves,29,29,40.7819,-73.9714,GPS,,D. E. Atha,,Dysphania pumilio (R.Br.) Mosyakin & Clemants,Plantae,Magnoliophyta,Amaranthaceae,Dysphania,pumilio,,Species,,,
c8dc2cee-9429-4a93-9f20-5be1bbc914a5,NY,PreservedSpecimen,2549555,15055,D. E. Atha,http://sweetgum.nybg.org/vh/specimen.php?irn=2913433,2015,North America,United States of America,New York,New York Co.,Central Park.  Ramble. Between 76th and 77th Streets and between 5th and 6th Avenues,18,18,40.7763,-73.9684,GPS,,D. E. Atha,,Euonymus europaeus L.,Plantae,Magnoliophyta,Celastraceae,Euonymus,europaeus,,Species,,,
d0eaf34e-0236-447e-a144-b2ac0308aa16,NY,PreservedSpecimen,2456381,14731,D. E. Atha,http://sweetgum.nybg.org/vh/specimen.php?irn=2686845,2014,North America,United States of America,New York,New York Co.,"Central Park. Tennis House, at the 97th St Transverse. Between 96th and 97th Streets and between 7th and 8th Avenues",30,30,40.7916,-73.9629,GPS,,D. E. Atha,,Prunus serotina Ehrh.,Plantae,Magnoliophyta,Rosaceae,Prunus,serotina,,Species,,,
8cff9ab6-dfb2-42cf-86b7-5271d573c837,NY,PreservedSpecimen,2456450,14504,D. E. Atha,http://sweetgum.nybg.org/vh/specimen.php?irn=2643328,2014,North America,United States of America,New York,New York Co.,Central Park. Conservatory Garden. Between 105th and 106th St and between 5th and 6th Aves,7,7,40.7941,-73.9521,GPS,25,D. E. Atha,,Sagina procumbens L.,Plantae,Magnoliophyta,Caryophyllaceae,Sagina,procumbens,,Species,,,
2a07a1be-02da-4e72-bea1-138d82f69487,NY,PreservedSpecimen,2456492,14692,D. E. Atha,http://sweetgum.nybg.org/vh/specimen.php?irn=2682219,2014,North America,United States of America,New York,New York Co.,Central Park. 79th St Transverse. Between 79th and 80th Sts and between 5th and 6th Aves,46,46,40.7785,-73.9666,GPS,,D. E. Atha,,Mentha spicata L.,Plantae,Magnoliophyta,Lamiaceae,Mentha,spicata,,Species,,,
410d0dc0-3443-4f37-8b6d-b7ec7fbe93f3,NY,PreservedSpecimen,64403,s.n.,Collector unspecified,http://sweetgum.nybg.org/vh/specimen.php?irn=409881,1867,North America,United States of America,New York,New York Co.,"Central Park, New York City",,,40.7823,-73.9654,GEOLocate Web Application,2545,,,Cryptomeria japonica (Thunb. ex L.f.) D.Don,Plantae,Pinophyta,Cupressaceae,Cryptomeria,japonica,,Species,,,
b3693a36-ea4c-4352-9385-9a274bff3174,NY,PreservedSpecimen,62509,s.n.,Illegible collector name,http://sweetgum.nybg.org/vh/specimen.php?irn=751802,1895,North America,United States of America,New York,New York Co.,Central Park,,,40.7823,-73.9654,GEOLocate Web Application,2545,,,Pinus resinosa Aiton,Plantae,Pinophyta,Pinaceae,Pinus,resinosa,,Species,,,
71477760-3766-49a4-b5e0-22de2dccdc33,NY,PreservedSpecimen,2589662,14962,D. E. Atha,http://sweetgum.nybg.org/vh/specimen.php?irn=2890570,2015,North America,United States of America,New York,New York Co.,Central Park. Lake at Wagner Cove. Between 70th and 71st Sts and between 7th and 8th Aves,18,18,40.7745,-73.9737,GPS,,D. E. Atha,,Cardamine hirsuta L.,Plantae,Magnoliophyta,Brassicaceae,Cardamine,hirsuta,,Species,,,
e86c4efa-73c9-4c8c-b695-16bb2c8451cc,NY,PreservedSpecimen,2589664,14964,D. E. Atha,http://sweetgum.nybg.org/vh/specimen.php?irn=2890718,2015,North America,United States of America,New York,New York Co.,Central Park. Lake at Wagner Cove. Between 70th and 71st Sts and between 7th and 8th Aves,18,18,40.7745,-73.9737,GPS,,D. E. Atha,,Cardamine hirsuta L.,Plantae,Magnoliophyta,Brassicaceae,Cardamine,hirsuta,,Species,,,
db4eb4b2-b724-4a58-ab5d-709f7d2f6de5,NY,PreservedSpecimen,2589673,14973,D. E. Atha,http://sweetgum.nybg.org/vh/specimen.php?irn=2890739,2015,North America,United States of America,New York,New York Co.,Central Park. Great Hill. Along path leading from 103rd St entrance to top of hill.  Between 103rd and 104th Sts and between 7th and 8th Aves,37,37,40.796,-73.9606,GPS,,D. E. Atha,,Cardamine hirsuta L.,Plantae,Magnoliophyta,Brassicaceae,Cardamine,hirsuta,,Species,,,
653e5347-743d-45aa-a835-075fdebd8dfc,NY,PreservedSpecimen,2450098,14498,D. E. Atha,http://sweetgum.nybg.org/vh/specimen.php?irn=2643322,2014,North America,United States of America,New York,New York Co.,"Central Park. Mount, at compost Area. Between 105th and 106th Streets and between 5th and 6th Avenues",46,46,40.7945,-73.9536,GPS,25,D. E. Atha,,Galium aparine L.,Plantae,Magnoliophyta,Rubiaceae,Galium,aparine,,Species,,,
246a0ffb-4498-4700-8d2a-86bb138a2a64,NY,PreservedSpecimen,2456371,14721,D. E. Atha,http://sweetgum.nybg.org/vh/specimen.php?irn=2686491,2014,North America,United States of America,New York,New York Co.,Central Park. Reservoir. Between 86th and 87th Sts and between 7th and 8th Aves,47,47,40.7848,-73.9674,GPS,,D. E. Atha,,Acalypha rhomboidea Raf.,Plantae,Magnoliophyta,Euphorbiaceae,Acalypha,rhomboidea,,Species,,,
88ccb44d-9909-4e97-b1a4-48df853bd16c,NY,PreservedSpecimen,2456548,14748,D. E. Atha,http://sweetgum.nybg.org/vh/specimen.php?irn=2686867,2014,North America,United States of America,New York,New York Co.,Central Park. Reservoir. At 87th St and between 5th and 6th Aves,46,46,40.7826,-73.9606,GPS,,D. E. Atha,,Coreopsis lanceolata L.,Plantae,Magnoliophyta,Asteraceae,Coreopsis,lanceolata,,Species,,,
924e64e7-d09c-4b06-ba9a-0fb99d5c4730,NY,PreservedSpecimen,2456484,14684,D. E. Atha,http://sweetgum.nybg.org/vh/specimen.php?irn=2681466,2014,North America,United States of America,New York,New York Co.,Central Park. 79th St Transverse.  At 81st St and between 7th and 8th Aves,29,29,40.7819,-73.9714,GPS,,D. E. Atha,,Amaranthus blitum L.,Plantae,Magnoliophyta,Amaranthaceae,Amaranthus,blitum,,Species,,,
13e16799-d9d6-465e-8047-40ad2ce839c2,NY,PreservedSpecimen,2457186,14886,D. E. Atha,http://sweetgum.nybg.org/vh/specimen.php?irn=2717618,2014,North America,United States of America,New York,New York Co.,"Central Park. Ramble, along north shore, between Bow Bridge and ""the Riviera"".  Between 73rd and 74th Sts and between 6th and 7th Aves",19,19,40.776,-73.9714,GPS,25,D. E. Atha,,Amaranthus cruentus L.,Plantae,Magnoliophyta,Amaranthaceae,Amaranthus,cruentus,,Species,,,
3ff314e6-a101-4a3e-8546-1a1473045f08,NY,PreservedSpecimen,2589670,14970,D. E. Atha,http://sweetgum.nybg.org/vh/specimen.php?irn=2890736,2015,North America,United States of America,New York,New York Co.,Central Park. Great Hill. Along path leading from 103rd St entrance to top of hill.  At 103rd St and between 7th and 8th Aves,30,30,40.7959,-73.9611,GPS,,D. E. Atha,,Veronica hederifolia L.,Plantae,Magnoliophyta,Plantaginaceae,Veronica,hederifolia,,Species,,,
e61d97ef-ebca-464d-9b0b-758151657a08,NY,PreservedSpecimen,2589671,14971,D. E. Atha,http://sweetgum.nybg.org/vh/specimen.php?irn=2890737,2015,North America,United States of America,New York,New York Co.,Central Park. Great Hill. Along path leading from 103rd St entrance to top of hill.  At 103rd St and between 7th and 8th Aves,30,30,40.7959,-73.9611,GPS,,D. E. Atha,,Veronica hederifolia L.,Plantae,Magnoliophyta,Plantaginaceae,Veronica,hederifolia,,Species,,,
d5b99f54-c17b-4e10-995f-2a80bb98fce1,NY,PreservedSpecimen,2549551,15051,D. E. Atha,http://sweetgum.nybg.org/vh/specimen.php?irn=2913430,2015,North America,United States of America,New York,New York Co.,"Central Park.  Lake, at the Loeb Boathouse. Between 75th and 76th Streets and between 5th and 6th Avenues",18,18,40.7755,-73.9684,GPS,,D. E. Atha,,Veronica hederifolia L.,Plantae,Magnoliophyta,Plantaginaceae,Veronica,hederifolia,,Species,,,
38c2e4ce-5050-47de-a494-b24cb0885a89,NY,PreservedSpecimen,2456372,14722,D. E. Atha,http://sweetgum.nybg.org/vh/specimen.php?irn=2686495,2014,North America,United States of America,New York,New York Co.,Central Park. Reservoir. Between 86th and 87th Sts and between 7th and 8th Aves,47,47,40.7848,-73.9674,GPS,,D. E. Atha,,Rudbeckia fulgida Aiton,Plantae,Magnoliophyta,Asteraceae,Rudbeckia,fulgida,,Species,,,
b3cd42cd-af8b-41a8-b246-cde72c6b8db8,NY,PreservedSpecimen,2456382,14732,D. E. Atha,http://sweetgum.nybg.org/vh/specimen.php?irn=2686846,2014,North America,United States of America,New York,New York Co.,"Central Park. Tennis House, at the 97th St Transverse. Between 96th and 97th Streets and between 7th and 8th Avenues",30,30,40.7916,-73.9629,GPS,,D. E. Atha,,Quercus bicolor Willd.,Plantae,Magnoliophyta,Fagaceae,Quercus,bicolor,,Species,,,
0ea30397-5e97-4881-b523-986667b26c29,NY,PreservedSpecimen,2457197,14897,D. E. Atha,http://sweetgum.nybg.org/vh/specimen.php?irn=2718088,2014,North America,United States of America,New York,New York Co.,"Central Park. Ramble, northwest of Azalea Pond. Between 75th and 76th Sts and between 6th and 7th Aves",50,50,40.7773,-73.9697,GPS,25,D. E. Atha,,Diervilla lonicera Mill.,Plantae,Magnoliophyta,Caprifoliaceae,Diervilla,lonicera,,Species,,,
a0e2606a-0400-4694-a6eb-2bb4dedaf430,NY,PreservedSpecimen,2549573,15073,D. E. Atha,http://sweetgum.nybg.org/vh/specimen.php?irn=2913738,2015,North America,United States of America,New York,New York Co.,"Central Park. Ramble, southwest of the Ramble Shed. Between 77th and 78th Streets and between 6th and 7th Avenues",31,31,40.7784,-73.9681,GPS,,D. E. Atha,,Rubus pensilvanicus Poir.,Plantae,Magnoliophyta,Rosaceae,Rubus,pensilvanicus,,Species,,,
69e44ab3-d295-48c8-a9b0-93fe0ee0b7dd,NY,PreservedSpecimen,2589672,14972,D. E. Atha,http://sweetgum.nybg.org/vh/specimen.php?irn=2890738,2015,North America,United States of America,New York,New York Co.,Central Park. Great Hill. Along path leading from 103rd St entrance to top of hill.  At 103rd St and between 7th and 8th Aves,30,30,40.7959,-73.9611,GPS,,D. E. Atha,,Pachysandra procumbens Michx.,Plantae,Magnoliophyta,Buxaceae,Pachysandra,procumbens,,Species,,,
c75dc178-34d9-4a82-aacc-6db88dfd6769,NY,PreservedSpecimen,2450067,14467,D. E. Atha,http://sweetgum.nybg.org/vh/specimen.php?irn=2650066,2014,North America,United States of America,New York,New York Co.,"Central Park. Tennis House, north of the Tennis Courts, between 96th and 97th Streets and between 6th and 7th Avenues",31,31,40.7905,-73.9611,GPS,25,D. E. Atha,,Gleditsia triacanthos L.,Plantae,Magnoliophyta,Fabaceae,Gleditsia,triacanthos,,Species,,,
df31d832-dbbb-4445-bf73-63867ff1e188,NY,PreservedSpecimen,2549554,15054,D. E. Atha,http://sweetgum.nybg.org/vh/specimen.php?irn=2913432,2015,North America,United States of America,New York,New York Co.,"Central Park.  Lake, at the Loeb Boathouse. Between 75th and 76th Streets and between 5th and 6th Avenues",18,18,40.7755,-73.9684,GPS,,D. E. Atha,,Gleditsia triacanthos L.,Plantae,Magnoliophyta,Fabaceae,Gleditsia,triacanthos,,Species,,,
192dd5bf-786d-457e-ac53-a7a7cd99cba7,NY,PreservedSpecimen,2450063,14503,D. E. Atha,http://sweetgum.nybg.org/vh/specimen.php?irn=2643327,2014,North America,United States of America,New York,New York Co.,Central Park. Conservatory Garden. Between 105th and 106th St and between 5th and 6th Aves,7,7,40.7941,-73.9521,GPS,25,D. E. Atha,,Mazus pumilus (Burm.f.) Steenis,Plantae,Magnoliophyta,Mazaceae,Mazus,pumilus,,Species,,,
e81a5c0d-da31-42d1-8b17-da14682357a4,NY,PreservedSpecimen,2449998,14598,D. E. Atha,http://sweetgum.nybg.org/vh/specimen.php?irn=2645767,2014,North America,United States of America,New York,New York Co.,"Central Park. Ramble, north of the Boathouse.  Between 76th and 77th Sts and between 5th and 6th Aves",24,24,40.7766,-73.9677,GPS,25,D. E. Atha,,Commelina communis L.,Plantae,Magnoliophyta,Commelinaceae,Commelina,communis,,Species,,,
bfeb6ff9-ad4f-45c9-bd3d-06fd29c81ca4,NY,PreservedSpecimen,2450096,14496,D. E. Atha,http://sweetgum.nybg.org/vh/specimen.php?irn=2643321,2014,North America,United States of America,New York,New York Co.,"Central Park. Mount, at compost Area. Between 105th and 106th Streets and between 5th and 6th Avenues",46,46,40.7945,-73.9536,GPS,25,D. E. Atha,,Commelina communis L.,Plantae,Magnoliophyta,Commelinaceae,Commelina,communis,,Species,,,
076ba62b-ae20-4ac1-8fcc-b92ca5113025,NY,PreservedSpecimen,2457035,14935,D. E. Atha,http://sweetgum.nybg.org/vh/specimen.php?irn=2733301,2014,North America,United States of America,New York,New York Co.,"Central Park. North Woods, just south of East Drive, west of ""Climbing Rock"". Between 108th and 109th St and between 6th and 7th Aves",12,12,40.7984,-73.9548,GPS,25,T. C. Andres,,Cucurbita ficifolia Bouché,Plantae,Magnoliophyta,Cucurbitaceae,Cucurbita,ficifolia,,Species,,,
a3e6af78-b307-41f5-8686-0c69cccf1602,NY,PreservedSpecimen,2457265,14935,D. E. Atha,http://sweetgum.nybg.org/vh/specimen.php?irn=2784185,2014,North America,United States of America,New York,New York Co.,"Central Park. North Woods, just south of East Drive, west of ""Climbing Rock"". Between 108th and 109th St and between 6th and 7th Aves",12,12,40.7984,-73.9548,GPS,25,T. C. Andres,,Cucurbita ficifolia Bouché,Plantae,Magnoliophyta,Cucurbitaceae,Cucurbita,ficifolia,,Species,,,
b18f92dc-adef-440a-89a4-397d6b9a1972,NY,PreservedSpecimen,2457046,14946,D. E. Atha,http://sweetgum.nybg.org/vh/specimen.php?irn=2733757,2014,North America,United States of America,New York,New York Co.,"Central Park. Great Hill, Childrens Glade. At 104th St and between 7th and 8th Aves",48,48,40.7964,-73.9602,GPS,25,D. E. Atha,,Hamamelis virginiana L.,Plantae,Magnoliophyta,Hamamelidaceae,Hamamelis,virginiana,,Species,,,
1919582d-6ce8-46f2-bbb3-4a09009320e5,NY,PreservedSpecimen,2549552,15052,D. E. Atha,http://sweetgum.nybg.org/vh/specimen.php?irn=2913729,2015,North America,United States of America,New York,New York Co.,"Central Park.  Lake, at the Loeb Boathouse. Between 75th and 76th Streets and between 5th and 6th Avenues",18,18,40.7755,-73.9684,GPS,,D. E. Atha,,Poa pratensis L.,Plantae,Magnoliophyta,Poaceae,Poa,pratensis,,Species,,,
e8ee9092-33d9-4edd-a79c-d20685b35c67,NY,PreservedSpecimen,2549582,15082,D. E. Atha,http://sweetgum.nybg.org/vh/specimen.php?irn=2913739,2015,North America,United States of America,New York,New York Co.,Central Park. Ramble. Between 77th and 78th Streets and between 6th and 7th Avenues,29,29,40.7791,-73.9698,GPS,,D. E. Atha,,Poa pratensis L.,Plantae,Magnoliophyta,Poaceae,Poa,pratensis,,Species,,,
f4f4891b-da29-43a3-b5ed-17bd8acca5cf,NY,PreservedSpecimen,2332650,s.n.,G. Clarke,http://sweetgum.nybg.org/vh/specimen.php?irn=2533017,1890,North America,United States of America,New York,New York Co.,Central Park,,,40.7823,-73.9654,GEOLocate Web Application,2545,D. E. Atha,,Silene latifolia Poir.,Plantae,Magnoliophyta,Caryophyllaceae,Silene,latifolia,,Species,,,
0cf4201e-1291-49c0-8578-bfd0002585ad,NY,PreservedSpecimen,2377912,s.n.,E. H. Day,http://sweetgum.nybg.org/vh/specimen.php?irn=2602515,1879,North America,United States of America,New York,New York Co.,Central Park,,,40.7823,-73.9654,GEOLocate Web Application,2545,D. E. Atha,,Ptelea trifoliata L.,Plantae,Magnoliophyta,Rutaceae,Ptelea,trifoliata,,Species,,,
2d55c3f1-2b90-42dc-b8bb-61eb70f304f9,NY,PreservedSpecimen,2589686,14986,D. E. Atha,http://sweetgum.nybg.org/vh/specimen.php?irn=2890765,2015,North America,United States of America,New York,New York Co.,Central Park. North Woods. Between 108th and 109th Sts and between 7th and 8th Aves,33,33,40.799,-73.9562,GPS,,D. E. Atha,,Quercus rubra L.,Plantae,Magnoliophyta,Fagaceae,Quercus,rubra,,Species,,,
b8993770-a68c-4a75-80dd-545c6470a5f7,NY,PreservedSpecimen,2456317,14517,D. E. Atha,http://sweetgum.nybg.org/vh/specimen.php?irn=2643379,2014,North America,United States of America,New York,New York Co.,"Central Park, North Woods, between 108th and 109th Sts and between 6th and 7th Aves",14,14,40.7979,-73.9547,GPS,25,D. E. Atha,,Amelanchier laevis Wiegand,Plantae,Magnoliophyta,Rosaceae,Amelanchier,laevis,,Species,,,
f6832134-9d92-4025-bc8e-b1d8b6cbd729,NY,PreservedSpecimen,2450066,14466,D. E. Atha,http://sweetgum.nybg.org/vh/specimen.php?irn=2643277,2014,North America,United States of America,New York,New York Co.,"Central Park. Tennis House, north of the Tennis Courts, between 96th and 97th Streets and between 6th and 7th Avenues",31,31,40.7905,-73.9611,GPS,25,D. E. Atha,,Amelanchier laevis Wiegand,Plantae,Magnoliophyta,Rosaceae,Amelanchier,laevis,,Species,,,
4cb19bd3-e03b-4ad2-af48-62f76e9e2e0b,NY,PreservedSpecimen,2456361,14711,D. E. Atha,http://sweetgum.nybg.org/vh/specimen.php?irn=2686422,2014,North America,United States of America,New York,New York Co.,"Central Park.  Great Lawn, just south of the 86th St. Transverse. Between 84th and 85th Sts and between 5th and 6th Aves",35,35,40.7816,-73.9633,GPS,,D. E. Atha,,Salvia reflexa Hornem.,Plantae,Magnoliophyta,Lamiaceae,Salvia,reflexa,,Species,,,
61a23505-5c62-449f-8e8c-9ce4beb4839a,NY,PreservedSpecimen,2450070,14470,D. E. Atha,http://sweetgum.nybg.org/vh/specimen.php?irn=2643279,2014,North America,United States of America,New York,New York Co.,"Central Park. Tennis House, north of the Tennis Courts, between 96th and 97th Streets and between 6th and 7th Avenues",31,31,40.7905,-73.9611,GPS,25,D. E. Atha,,Rubus flagellaris Willd.,Plantae,Magnoliophyta,Rosaceae,Rubus,flagellaris,,Species,,,
bfacb574-87b5-409f-82e2-059efdf4ec82,NY,PreservedSpecimen,2456385,14735,D. E. Atha,http://sweetgum.nybg.org/vh/specimen.php?irn=2686852,2014,North America,United States of America,New York,New York Co.,Central Park. 97th St Transverse. Between 96th and 97th Sts and between 7th and 8th Aves,33,33,40.7913,-73.9623,GPS,,D. E. Atha,,Rubus flagellaris Willd.,Plantae,Magnoliophyta,Rosaceae,Rubus,flagellaris,,Species,,,
da05ca4a-dd15-499b-9fb6-f5f085a09e62,NY,PreservedSpecimen,2549572,15072,D. E. Atha,http://sweetgum.nybg.org/vh/specimen.php?irn=2913737,2015,North America,United States of America,New York,New York Co.,"Central Park. Ramble, south of weather station. Between 77th and 78th Streets and between 6th and 7th Avenues",34,34,40.779,-73.9696,GPS,,D. E. Atha,,Rubus flagellaris Willd.,Plantae,Magnoliophyta,Rosaceae,Rubus,flagellaris,,Species,,,
600755a7-e649-4943-b81e-bd589b9d46ce,NY,PreservedSpecimen,2456377,14727,D. E. Atha,http://sweetgum.nybg.org/vh/specimen.php?irn=2686545,2014,North America,United States of America,New York,New York Co.,Central Park. Reservoir. Between 95th and 96th Sts and between 5th and 6th Aves,33,33,40.788,-73.9573,GPS,,D. E. Atha,,Cichorium intybus L.,Plantae,Magnoliophyta,Asteraceae,Cichorium,intybus,,Species,,,
47ec4a8f-41c8-407a-b96d-e1aba71d92bf,NY,PreservedSpecimen,2456376,14726,D. E. Atha,http://sweetgum.nybg.org/vh/specimen.php?irn=2686507,2014,North America,United States of America,New York,New York Co.,Central Park. Reservoir. Between 95th and 96th Sts and between 5th and 6th Aves,33,33,40.788,-73.9573,GPS,,D. E. Atha,,Rhus typhina L.,Plantae,Magnoliophyta,Anacardiaceae,Rhus,typhina,,Species,,,
5fd01007-85b5-4034-a9ff-c6f75a731560,NY,PreservedSpecimen,2589684,14984,D. E. Atha,http://sweetgum.nybg.org/vh/specimen.php?irn=2890751,2015,North America,United States of America,New York,New York Co.,Central Park. North Woods. Between 108th and 109th Sts and between 7th and 8th Aves,33,33,40.7991,-73.9581,GPS,,D. E. Atha,,Pyrus calleryana Decne.,Plantae,Magnoliophyta,Rosaceae,Pyrus,calleryana,,Species,,,
9b1e69f5-22bf-4d48-b291-12c3bdfc5242,NY,PreservedSpecimen,2589616,15016,D. E. Atha,http://sweetgum.nybg.org/vh/specimen.php?irn=2911742,2015,North America,United States of America,New York,New York Co.,"Central Park. 97th Street Transverse, south side. Between 96th and 97th Streets and between 6th and 7th Avenues",28,28,40.7898,-73.9588,GPS,,D. E. Atha,,Pyrus calleryana Decne.,Plantae,Magnoliophyta,Rosaceae,Pyrus,calleryana,,Species,,,
b59ede7f-975c-40d6-ba89-a13ed4e612ef,NY,PreservedSpecimen,2456315,14515,D. E. Atha,http://sweetgum.nybg.org/vh/specimen.php?irn=2643377,2014,North America,United States of America,New York,New York Co.,"Central Park, North Woods, between 108th and 109th Sts and between 6th and 7th Aves",14,14,40.7979,-73.9547,GPS,25,D. E. Atha,,Philadelphus coronarius L.,Plantae,Magnoliophyta,Hydrangeaceae,Philadelphus,coronarius,,Species,,,
3207919a-9938-4e0a-bbc3-361366d4a3b8,NY,PreservedSpecimen,2456370,14720,D. E. Atha,http://sweetgum.nybg.org/vh/specimen.php?irn=2703916,2014,North America,United States of America,New York,New York Co.,Central Park. Reservoir. Between 86th and 87th Sts and between 7th and 8th Aves,47,47,40.7848,-73.9674,GPS,,D. E. Atha,,Hieracium kalmii L.,Plantae,Magnoliophyta,Asteraceae,Hieracium,kalmii,,Species,,,
f441095a-6e8d-4059-97c5-9409831f24e0,NY,PreservedSpecimen,2456379,14720,D. E. Atha,http://sweetgum.nybg.org/vh/specimen.php?irn=2686490,2014,North America,United States of America,New York,New York Co.,Central Park. Reservoir. Between 86th and 87th Sts and between 7th and 8th Aves,47,47,40.7848,-73.9674,GPS,,D. E. Atha,,Hieracium kalmii L.,Plantae,Magnoliophyta,Asteraceae,Hieracium,kalmii,,Species,,,
dbd21df4-f9e0-4966-97a3-f8fd2760466a,NY,PreservedSpecimen,2450072,14472,D. E. Atha,http://sweetgum.nybg.org/vh/specimen.php?irn=2643281,2014,North America,United States of America,New York,New York Co.,"Central Park. Tennis House, north of the Tennis Courts, between 96th and 97th Streets and between 6th and 7th Avenues",31,31,40.7905,-73.9611,GPS,25,D. E. Atha,,Carex blanda Dewey,Plantae,Magnoliophyta,Cyperaceae,Carex,blanda,,Species,,,
eeade93d-a5a1-4def-97f1-c4a7536bbb1c,NY,PreservedSpecimen,2589620,15020,D. E. Atha,http://sweetgum.nybg.org/vh/specimen.php?irn=2911768,2015,North America,United States of America,New York,New York Co.,Central Park. Reservoir. Between 93rd and 94th Streets and between 7th and 8th Avenues,37,37,40.789,-73.9613,GPS,,D. E. Atha,,Viola pubescens Aiton,Plantae,Magnoliophyta,Violaceae,Viola,pubescens,,Species,,,
34520036-f088-4153-9768-002b13e13bf3,NY,PreservedSpecimen,2549557,15057,D. E. Atha,http://sweetgum.nybg.org/vh/specimen.php?irn=2913731,2015,North America,United States of America,New York,New York Co.,Central Park.  Ramble. Between 77th and 78th Streets and between 5th and 6th Avenues,18,18,40.777,-73.9681,GPS,,D. E. Atha,,Halesia tetraptera L.,Plantae,Magnoliophyta,Styracaceae,Halesia,tetraptera,,Species,,,
b5ea6186-fb74-43aa-9ad6-7aa72d0536f5,NY,PreservedSpecimen,2549558,15058,D. E. Atha,http://sweetgum.nybg.org/vh/specimen.php?irn=2913435,2015,North America,United States of America,New York,New York Co.,"Central Park.  Ramble, Iphigene's Walk. Between 78th and 79th Streets and between 6th and 7th Avenues.",18,18,40.7781,-73.9684,GPS,,D. E. Atha,,Viola labradorica Schrank,Plantae,Magnoliophyta,Violaceae,Viola,labradorica,,Species,,,
55ca521e-e5ac-430a-b4e5-ff4dcbcaaf96,NY,PreservedSpecimen,2456436,14636,D. E. Atha,http://sweetgum.nybg.org/vh/specimen.php?irn=2652381,2014,North America,United States of America,New York,New York Co.,Central Park.  Ramble.  Between 77th and 78th Sts at 6th Ave,30,30,40.7776,-73.9683,GPS,,D. E. Atha,,Lysimachia ciliata L.,Plantae,Magnoliophyta,Primulaceae,Lysimachia,ciliata,,Species,,,
8c5ee7ac-4588-470d-9e1a-41e7ef0bf486,NY,PreservedSpecimen,2456549,14749,D. E. Atha,http://sweetgum.nybg.org/vh/specimen.php?irn=2686868,2014,North America,United States of America,New York,New York Co.,Central Park. Reservoir. Between 95th and 96th Sts and between 5th and 6th Aves,44,44,40.7882,-73.9575,GPS,,D. E. Atha,,Teucrium canadense L.,Plantae,Magnoliophyta,Lamiaceae,Teucrium,canadense,,Species,,,
091f5fa0-08ec-4289-a865-d03f66183667,NY,PreservedSpecimen,2450099,14499,D. E. Atha,http://sweetgum.nybg.org/vh/specimen.php?irn=2643324,2014,North America,United States of America,New York,New York Co.,"Central Park. Mount, at compost Area. Between 105th and 106th Streets and between 5th and 6th Avenues",46,46,40.7945,-73.9536,GPS,25,D. E. Atha,,Malva neglecta Wallr.,Plantae,Magnoliophyta,Malvaceae,Malva,neglecta,,Species,,,
39e3c88e-0804-46c0-b53a-d27c79d06d0c,NY,PreservedSpecimen,2549570,15070,D. E. Atha,http://sweetgum.nybg.org/vh/specimen.php?irn=2913577,2015,North America,United States of America,New York,New York Co.,"Central Park. Ramble, south of weather station. Between 77th and 78th Streets and between 6th and 7th Avenues",34,34,40.779,-73.9696,GPS,,D. E. Atha,,Dactylis glomerata L.,Plantae,Magnoliophyta,Poaceae,Dactylis,glomerata,,Species,,,
9ca50cbf-acac-4b86-a28b-6bc6637ab161,NY,PreservedSpecimen,2589613,15013,D. E. Atha,http://sweetgum.nybg.org/vh/specimen.php?irn=2911718,2015,North America,United States of America,New York,New York Co.,Central Park. Ramble.  Between 76th and 77th Streets and between 7th and 8th Avenues,34,34,40.7786,-73.9716,GPS,,D. E. Atha,,Vaccinium corymbosum L.,Plantae,Magnoliophyta,Ericaceae,Vaccinium,corymbosum,,Species,,,
83cc105a-e829-4710-8038-3f227f98fef9,NY,PreservedSpecimen,2456467,14667,D. E. Atha,http://sweetgum.nybg.org/vh/specimen.php?irn=2681453,2014,North America,United States of America,New York,New York Co.,Central Park. North Woods. Between 108th and 109th Sts and between 6th and 7th Aves,23,23,40.7977,-73.9546,GPS,,D. E. Atha,,Tradescantia ohiensis Raf.,Plantae,Magnoliophyta,Commelinaceae,Tradescantia,ohiensis,,Species,,,
10795c20-c1b8-4c67-8fa9-24baff6c0577,NY,PreservedSpecimen,2456441,14641,D. E. Atha,http://sweetgum.nybg.org/vh/specimen.php?irn=2652392,2014,North America,United States of America,New York,New York Co.,Central Park. 65th Street Transverse.  Between 65th and 66th Sts and between 6th and 7th Aves,19,19,40.7706,-73.9757,GPS,,D. E. Atha,,Koelreuteria paniculata Laxm.,Plantae,Magnoliophyta,Sapindaceae,Koelreuteria,paniculata,,Species,,,
e356f50a-4035-493d-b648-4e2f637c1988,NY,PreservedSpecimen,2589617,15017,D. E. Atha,http://sweetgum.nybg.org/vh/specimen.php?irn=2911748,2015,North America,United States of America,New York,New York Co.,Central Park. 97th Street Transverse to Reservoir. Between 96th and 97th Streets and between 5th and 6th Avenues,34,34,40.7893,-73.9584,GPS,,D. E. Atha,,Koelreuteria paniculata Laxm.,Plantae,Magnoliophyta,Sapindaceae,Koelreuteria,paniculata,,Species,,,
f7e4af08-f07e-4bbe-a672-99d303bda6cd,NY,PreservedSpecimen,2589618,15018,D. E. Atha,http://sweetgum.nybg.org/vh/specimen.php?irn=2911759,2015,North America,United States of America,New York,New York Co.,"Central Park. 97th Street Transverse, south side. Between 96th and 97th Streets and between 5th and 6th Avenues",34,34,40.7893,-73.9586,GPS,,D. E. Atha,,Koelreuteria paniculata Laxm.,Plantae,Magnoliophyta,Sapindaceae,Koelreuteria,paniculata,,Species,,,
214a208e-94c6-4939-ab9b-099b767a004f,NY,PreservedSpecimen,2457199,14898,D. E. Atha,http://sweetgum.nybg.org/vh/specimen.php?irn=2718090,2014,North America,United States of America,New York,New York Co.,"Central Park. Ramble, northwest of Azalea Pond. Between 75th and 76th Sts and between 6th and 7th Aves",50,50,40.7773,-73.9697,GPS,25,D. E. Atha,,Celtis occidentalis L.,Plantae,Magnoliophyta,Ulmaceae,Celtis,occidentalis,,Species,,,
3590c707-9eb5-43c0-9e3d-17dd392e9fbc,NY,PreservedSpecimen,2456299,14599,D. E. Atha,http://sweetgum.nybg.org/vh/specimen.php?irn=2645768,2014,North America,United States of America,New York,New York Co.,"Central Park. Ramble, north of the Boathouse.  Between 76th and 77th Sts and between 5th and 6th Aves",24,24,40.7766,-73.9677,GPS,25,D. E. Atha,,Diospyros virginiana L.,Plantae,Magnoliophyta,Ebenaceae,Diospyros,virginiana,,Species,,,
3cd7b62d-df84-4955-b896-600828ef06cb,NY,PreservedSpecimen,2456300,14600,D. E. Atha,http://sweetgum.nybg.org/vh/specimen.php?irn=2652010,2014,North America,United States of America,New York,New York Co.,"Central Park. Ramble, north of the Boathouse.  Between 76th and 77th Sts and between 5th and 6th Aves",24,24,40.7766,-73.9677,GPS,25,D. E. Atha,,Diospyros virginiana L.,Plantae,Magnoliophyta,Ebenaceae,Diospyros,virginiana,,Species,,,
92e8d411-7067-48ff-b875-e7bccfdab4f3,NY,PreservedSpecimen,2456651,14751,D. E. Atha,http://sweetgum.nybg.org/vh/specimen.php?irn=2691877,2014,North America,United States of America,New York,New York Co.,Central Park. Reservoir. Between 95th and 96th Sts and between 5th and 6th Aves,44,44,40.7882,-73.9575,GPS,,D. E. Atha,,Acalypha australis L.,Plantae,Magnoliophyta,Euphorbiaceae,Acalypha,australis,,Species,,,
98e6bcec-6df6-4dda-85e0-08971be35588,NY,PreservedSpecimen,2456874,14899,D. E. Atha,http://sweetgum.nybg.org/vh/specimen.php?irn=2718091,2014,North America,United States of America,New York,New York Co.,"Central Park. Ramble, northwest of Azalea Pond. Between 75th and 76th Sts and between 6th and 7th Aves",50,50,40.7773,-73.9697,GPS,25,D. E. Atha,,Celtis sinensis Pers.,Plantae,Magnoliophyta,Ulmaceae,Celtis,sinensis,,Species,,,
7d90f806-ab72-4f08-a0f6-a3ad9cad7522,NY,PreservedSpecimen,2589689,14989,D. E. Atha,http://sweetgum.nybg.org/vh/specimen.php?irn=2890775,2015,North America,United States of America,New York,New York Co.,Central Park. Great Hill. At the Children's Glade.  Between 104th and 105th Sts and 7th and 8th Aves,29,29,40.797,-73.9598,GPS,,D. E. Atha,,Thalictrum dioicum L.,Plantae,Magnoliophyta,Ranunculaceae,Thalictrum,dioicum,,Species,,,
65cb6bbe-d8ae-465b-a7fc-5ec88bb0bd35,NY,PreservedSpecimen,2589619,15019,D. E. Atha,http://sweetgum.nybg.org/vh/specimen.php?irn=2911760,2015,North America,United States of America,New York,New York Co.,Central Park. Reservoir. Between 95th and 96th Streets and between 6th and 7th Avenues,37,37,40.7889,-73.9602,GPS,,D. E. Atha,,Ranunculus abortivus L.,Plantae,Magnoliophyta,Ranunculaceae,Ranunculus,abortivus,,Species,,,
e75c6c4c-9ab8-4514-a674-1ca344d37265,NY,PreservedSpecimen,2457045,14945,D. E. Atha,http://sweetgum.nybg.org/vh/specimen.php?irn=2733726,2014,North America,United States of America,New York,New York Co.,"Central Park. Great Hill, cliff above sidewalk on 8th Ave. Between 104th and 105th Sts and between 7th and 8th Aves",48,48,40.7971,-73.9604,GPS,25,D. E. Atha,,Sedum sarmentosum Bunge,Plantae,Magnoliophyta,Crassulaceae,Sedum,sarmentosum,,Species,,,
f07fc0f9-4745-425f-9ed1-31d4dd15d7ca,NY,PreservedSpecimen,2456364,14714,D. E. Atha,http://sweetgum.nybg.org/vh/specimen.php?irn=2686410,2014,North America,United States of America,New York,New York Co.,"Central Park.  Great Lawn, just south of the 86th St. Transverse. Between 85th and 86th Sts and between 5th and 6th Aves",35,35,40.7828,-73.9638,GPS,,D. E. Atha,,Medicago lupulina L.,Plantae,Magnoliophyta,Fabaceae,Medicago,lupulina,,Species,,,
417af7f5-0524-45d8-8448-6c337ac83725,NY,PreservedSpecimen,2449994,14594,D. E. Atha,http://sweetgum.nybg.org/vh/specimen.php?irn=2671762,2014,North America,United States of America,New York,New York Co.,"Central Park. Ramble, north of the Boathouse.  Between 75th and 76th Sts and between 5th and 6th Aves",24,24,40.776,-73.9685,GPS,25,D. E. Atha,,Medicago lupulina L.,Plantae,Magnoliophyta,Fabaceae,Medicago,lupulina,,Species,,,
9d09599f-064a-4366-a067-a21131013334,NY,PreservedSpecimen,2449871,14371,D. E. Atha,http://sweetgum.nybg.org/vh/specimen.php?irn=2624275,2014,North America,United States of America,New York,New York Co.,"Central Park, North Woods, between 108th and 109th Sts and between Lenox Ave and Adam Clayton Powell Jr Blvd",14,14,40.798,-73.9546,GPS,,D. E. Atha,,Lamium purpureum L.,Plantae,Magnoliophyta,Lamiaceae,Lamium,purpureum,,Species,,,
8a1e8f25-edbf-4767-a041-9ffdbc0ed0b3,NY,PreservedSpecimen,2589700,15000,D. E. Atha,http://sweetgum.nybg.org/vh/specimen.php?irn=2911569,2015,North America,United States of America,New York,New York Co.,Central Park. Great Hill. Between 102nd and 103rd Streets and between 7th and 8th Aves,18,18,40.7949,-73.9593,GPS,,D. E. Atha,,Viola sororia Willd.,Plantae,Magnoliophyta,Violaceae,Viola,sororia,,Species,,,
82775f35-f036-45b6-bfa6-71ce46fef110,NY,PreservedSpecimen,2589601,15001,D. E. Atha,http://sweetgum.nybg.org/vh/specimen.php?irn=2911586,2015,North America,United States of America,New York,New York Co.,Central Park. Great Hill. Between 102nd and 103rd Streets and between 7th and 8th Aves,18,18,40.7949,-73.9593,GPS,,D. E. Atha,,Viola sororia Willd.,Plantae,Magnoliophyta,Violaceae,Viola,sororia,,Species,,,
a7e62f5a-810c-4d4d-acc5-93a6cf24c218,NY,PreservedSpecimen,2549560,15060,D. E. Atha,http://sweetgum.nybg.org/vh/specimen.php?irn=2913559,2015,North America,United States of America,New York,New York Co.,"Central Park.  Ramble, Ramble Shed. Between 78th and 79th Streets and between 6th and 7th Avenues",18,18,40.7785,-73.9687,GPS,,D. E. Atha,,Viola sororia Willd.,Plantae,Magnoliophyta,Violaceae,Viola,sororia,,Species,,,
2b065ced-bf9e-451b-8653-03332cc54995,NY,PreservedSpecimen,2456359,14709,D. E. Atha,http://sweetgum.nybg.org/vh/specimen.php?irn=2686416,2014,North America,United States of America,New York,New York Co.,"Central Park.  Great Lawn, just south of the 86th St. Transverse. Between 85th and 86th Sts and between 5th and 6th Aves",35,35,40.7828,-73.9638,GPS,,D. E. Atha,,Plantago rugelii Decne.,Plantae,Magnoliophyta,Plantaginaceae,Plantago,rugelii,,Species,,,
2012fa93-1538-4f59-9169-574e20aeedd9,NY,PreservedSpecimen,2589750,15050,D. E. Atha,http://sweetgum.nybg.org/vh/specimen.php?irn=2913424,2015,North America,United States of America,New York,New York Co.,Central Park. Meer and Forts.  Between the Conservatory Garden and the Harlem Meer. 108th and 109th Streets and between 6th and 7th Avenues,17,17,40.7949,-73.9522,GPS,,D. E. Atha,,Fraxinus americana L.,Plantae,Magnoliophyta,Oleaceae,Fraxinus,americana,,Species,,,
da0aeb65-f298-4d0f-bc29-e22c5aeed8c1,NY,PreservedSpecimen,2549574,15074,D. E. Atha,http://sweetgum.nybg.org/vh/specimen.php?irn=2913592,2015,North America,United States of America,New York,New York Co.,"Central Park. Ramble, southwest of the Ramble Shed. Between 77th and 78th Streets and between 6th and 7th Avenues",31,31,40.7784,-73.9681,GPS,,D. E. Atha,,Fraxinus americana L.,Plantae,Magnoliophyta,Oleaceae,Fraxinus,americana,,Species,,,
2f90a7ff-5dfb-4879-b183-610a90b54351,NY,PreservedSpecimen,2456442,14642,D. E. Atha,http://sweetgum.nybg.org/vh/specimen.php?irn=2652396,2014,North America,United States of America,New York,New York Co.,Central Park. 65th Street Transverse.  Between 65th and 66th Sts and between 7th and 8th Aves,19,19,40.7714,-73.9775,GPS,,D. E. Atha,,Ligustrum ovalifolium Hassk.,Plantae,Magnoliophyta,Oleaceae,Ligustrum,ovalifolium,,Species,,,
3598ccad-fe54-49de-921e-4009cbef7463,NY,PreservedSpecimen,2549553,15053,D. E. Atha,http://sweetgum.nybg.org/vh/specimen.php?irn=2913431,2015,North America,United States of America,New York,New York Co.,"Central Park.  Lake, at the Loeb Boathouse. Between 75th and 76th Streets and between 5th and 6th Avenues",18,18,40.7755,-73.9684,GPS,,D. E. Atha,,Quercus phellos L.,Plantae,Magnoliophyta,Fagaceae,Quercus,phellos,,Species,,,
b59766b6-2f1b-4013-add2-406549772a6c,NY,PreservedSpecimen,2456357,14707,D. E. Atha,http://sweetgum.nybg.org/vh/specimen.php?irn=2686391,2014,North America,United States of America,New York,New York Co.,"Central Park.  Great Lawn, just south of the 86th St. Transverse. Between 85th and 86th Sts and between 5th and 6th Aves",35,35,40.7828,-73.9638,GPS,,D. E. Atha,,Epilobium ciliatum Raf.,Plantae,Magnoliophyta,Onagraceae,Epilobium,ciliatum,,Species,,,
bdae41f4-34ef-42d2-af00-e428672e8b2a,NY,PreservedSpecimen,2456358,14708,D. E. Atha,http://sweetgum.nybg.org/vh/specimen.php?irn=2686412,2014,North America,United States of America,New York,New York Co.,"Central Park.  Great Lawn, just south of the 86th St. Transverse. Between 85th and 86th Sts and between 5th and 6th Aves",35,35,40.7828,-73.9638,GPS,,D. E. Atha,,Plantago major L.,Plantae,Magnoliophyta,Plantaginaceae,Plantago,major,,Species,,,
04677da5-e7d1-43c1-b41a-b6238cc98ed2,NY,PreservedSpecimen,2456483,14683,D. E. Atha,http://sweetgum.nybg.org/vh/specimen.php?irn=2681465,2014,North America,United States of America,New York,New York Co.,Central Park. 79th St Transverse.  At 81st St and between 7th and 8th Aves,29,29,40.7819,-73.9714,GPS,,D. E. Atha,,Polygonum aviculare L.,Plantae,Magnoliophyta,Polygonaceae,Polygonum,aviculare,,Species,,,
aa93fc34-d40f-4817-8ebe-739309669c7f,NY,PreservedSpecimen,2450071,14471,D. E. Atha,http://sweetgum.nybg.org/vh/specimen.php?irn=2643280,2014,North America,United States of America,New York,New York Co.,"Central Park. Tennis House, north of the Tennis Courts, between 96th and 97th Streets and between 6th and 7th Avenues",31,31,40.7905,-73.9611,GPS,25,D. E. Atha,,Solanum dulcamara L.,Plantae,Magnoliophyta,Solanaceae,Solanum,dulcamara,,Species,,,
3c2cf854-eafb-4fb2-988e-58266ac182ea,NY,PreservedSpecimen,2456373,14723,D. E. Atha,http://sweetgum.nybg.org/vh/specimen.php?irn=2686498,2014,North America,United States of America,New York,New York Co.,Central Park. Reservoir. Between 88th and 89th Sts and between 5th and 6th Aves,47,47,40.7834,-73.9597,GPS,,T. C. Andres,,Cucumis melo L.,Plantae,Magnoliophyta,Cucurbitaceae,Cucumis,melo,,Species,,,
96d9703e-3608-4793-b1af-bf1041904bf2,NY,PreservedSpecimen,2589668,14968,D. E. Atha,http://sweetgum.nybg.org/vh/specimen.php?irn=2890734,2015,North America,United States of America,New York,New York Co.,"Central Park. North Meadow, Recreation Center. Between 97th and 98th St and between 7th and 8th Aves",28,28,40.7912,-73.961,GPS,,D. E. Atha,,Draba verna L.,Plantae,Magnoliophyta,Brassicaceae,Draba,verna,,Species,,,
3f9372fc-54d4-48cb-b064-3d7f7709e442,NY,PreservedSpecimen,2549564,15064,D. E. Atha,http://sweetgum.nybg.org/vh/specimen.php?irn=2913563,2015,North America,United States of America,New York,New York Co.,"Central Park. Great Hill, on cliffs west of the Peter Jay Sharp Children's Glade, between 104th and 105th Streets and between 7th and 8th Avenues",31,31,40.797,-73.9605,GPS,,D. E. Atha,,Fraxinus pennsylvanica Marshall,Plantae,Magnoliophyta,Oleaceae,Fraxinus,pennsylvanica,,Species,,,
8c0bf35e-56d2-4ca9-ba0c-f017fa1fbc68,NY,PreservedSpecimen,2549597,15097,D. E. Atha,http://sweetgum.nybg.org/vh/specimen.php?irn=2913724,2015,North America,United States of America,New York,New York Co.,Central Park. Pool. Between 101st and 102nd Streets and between 7th and 8th Avenues,20,20,40.7942,-73.9612,GPS,,D. E. Atha,,Fraxinus pennsylvanica Marshall,Plantae,Magnoliophyta,Oleaceae,Fraxinus,pennsylvanica,,Species,,,
a1279433-0a38-4ed8-9522-0e2db14a9145,NY,PreservedSpecimen,2549562,15062,D. E. Atha,http://sweetgum.nybg.org/vh/specimen.php?irn=2913734,2015,North America,United States of America,New York,New York Co.,"Central Park. Great Hill, at 103rd St entrance. At 103rd St, between 7th and 8th Avenues",27,27,40.796,-73.9612,GPS,,D. E. Atha,,Anemone canadensis L.,Plantae,Magnoliophyta,Ranunculaceae,Anemone,canadensis,,Species,,,
5c772fdf-7ad4-494f-93bf-cb8434d09940,NY,PreservedSpecimen,2449885,14385,D. E. Atha,http://sweetgum.nybg.org/vh/specimen.php?irn=2624365,2014,North America,United States of America,New York,New York Co.,"Central Park, Ramble at north edge of Boathouse parking lot, between 76th and 77th Sts and between 5th Ave and Lenox Ave",22,22,40.7759,-73.9679,GPS,,D. E. Atha,,Cercis canadensis L.,Plantae,Magnoliophyta,Fabaceae,Cercis,canadensis,,Species,,,
b2e22bdf-396c-4305-b8e9-a3de261d3b05,NY,PreservedSpecimen,2589682,14982,D. E. Atha,http://sweetgum.nybg.org/vh/specimen.php?irn=2890749,2015,North America,United States of America,New York,New York Co.,"Central Park. North Woods, Ravine. Southwest of the Lasker Rink.  Between 105th and 106th Sts and between 6th and 7th Aves",49,49,40.7961,-73.9563,GPS,,D. E. Atha,,Prunus virginiana L.,Plantae,Magnoliophyta,Rosaceae,Prunus,virginiana,,Species,,,
9f861c6d-c8bf-440b-98ab-42c64abfc9f2,NY,PreservedSpecimen,2589685,14985,D. E. Atha,http://sweetgum.nybg.org/vh/specimen.php?irn=2890752,2015,North America,United States of America,New York,New York Co.,Central Park. North Woods. Between 108th and 109th Sts and between 7th and 8th Aves,33,33,40.799,-73.9562,GPS,,D. E. Atha,,Prunus virginiana L.,Plantae,Magnoliophyta,Rosaceae,Prunus,virginiana,,Species,,,
aef4422f-6d32-4d93-8dfb-6b841cf9295e,NY,PreservedSpecimen,2456547,14747,D. E. Atha,http://sweetgum.nybg.org/vh/specimen.php?irn=2686866,2014,North America,United States of America,New York,New York Co.,Central Park. Reservoir. At 87th St and between 5th and 6th Aves,46,46,40.7826,-73.9606,GPS,,D. E. Atha,,Hieracium caespitosum Dumort.,Plantae,Magnoliophyta,Asteraceae,Hieracium,caespitosum,,Species,,,
2d8d0def-8182-4897-afd0-b556cd0df8a0,NY,PreservedSpecimen,2457189,14889,D. E. Atha,http://sweetgum.nybg.org/vh/specimen.php?irn=2718009,2014,North America,United States of America,New York,New York Co.,Central Park. Ramble. Between 74th and 75th Sts and between 6th and 7th Aves,18,18,40.7766,-73.9703,GPS,25,D. E. Atha,,Lobelia siphilitica L.,Plantae,Magnoliophyta,Campanulaceae,Lobelia,siphilitica,,Species,,,
bf304ef6-70bd-47c8-ac21-3483892a53fe,NY,PreservedSpecimen,2456386,14736,D. E. Atha,http://sweetgum.nybg.org/vh/specimen.php?irn=2686855,2014,North America,United States of America,New York,New York Co.,Central Park. 97th St Transverse. Between 96th and 97th Sts and between 7th and 8th Aves,32,32,40.7909,-73.9613,GPS,,D. E. Atha,,Rhus glabra L.,Plantae,Magnoliophyta,Anacardiaceae,Rhus,glabra,,Species,,,
31e14507-73ff-44dd-aa4d-2dfa59b74b3d,NY,PreservedSpecimen,2457196,14896,D. E. Atha,http://sweetgum.nybg.org/vh/specimen.php?irn=2718087,2014,North America,United States of America,New York,New York Co.,"Central Park. Ramble, northwest of Azalea Pond. Between 75th and 76th Sts and between 6th and 7th Aves",50,50,40.7773,-73.9697,GPS,25,D. E. Atha,,Xanthium strumarium L.,Plantae,Magnoliophyta,Asteraceae,Xanthium,strumarium,,Species,,,
9deeab18-6e91-487c-9431-e0eca8a3ec97,NY,PreservedSpecimen,2456539,14725,D. E. Atha,http://sweetgum.nybg.org/vh/specimen.php?irn=2686504,2014,North America,United States of America,New York,New York Co.,Central Park. Reservoir. Between 92nd and 93rd Sts and between 5th and 6th Aves,43,43,40.786,-73.9578,GPS,,D. E. Atha,,Lactuca canadensis L.,Plantae,Magnoliophyta,Asteraceae,Lactuca,canadensis,,Species,,,
019a8984-059f-47fd-9d90-424f8f4ad463,NY,PreservedSpecimen,2456375,14725,D. E. Atha,http://sweetgum.nybg.org/vh/specimen.php?irn=2703915,2014,North America,United States of America,New York,New York Co.,Central Park. Reservoir. Between 92nd and 93rd Sts and between 5th and 6th Aves,43,43,40.786,-73.9578,GPS,,D. E. Atha,,Lactuca canadensis L.,Plantae,Magnoliophyta,Asteraceae,Lactuca,canadensis,,Species,,,
819670a2-ed61-46e7-87d3-61da84e0a763,NY,PreservedSpecimen,2457190,14890,D. E. Atha,http://sweetgum.nybg.org/vh/specimen.php?irn=2718011,2014,North America,United States of America,New York,New York Co.,Central Park. Ramble. Between 74th and 75th Sts and between 6th and 7th Aves,18,18,40.7766,-73.9703,GPS,25,D. E. Atha,,Conoclinium coelestinum (L.) DC.,Plantae,Magnoliophyta,Asteraceae,Conoclinium,coelestinum,,Species,,,
e1c2af33-0538-4f76-a1ce-aaadab74fa5a,NY,PreservedSpecimen,2450100,14500,D. E. Atha,http://sweetgum.nybg.org/vh/specimen.php?irn=2643325,2014,North America,United States of America,New York,New York Co.,"Central Park. Mount, at compost Area. Between 105th and 106th Streets and between 5th and 6th Avenues",46,46,40.7945,-73.9536,GPS,25,D. E. Atha,,Sonchus asper (L.) Hill,Plantae,Magnoliophyta,Asteraceae,Sonchus,asper,,Species,,,
76cf7f33-92d2-4d6f-938f-dec84a1d1e0d,NY,PreservedSpecimen,2456360,14710,D. E. Atha,http://sweetgum.nybg.org/vh/specimen.php?irn=2686418,2014,North America,United States of America,New York,New York Co.,"Central Park.  Great Lawn, just south of the 86th St. Transverse. Between 84th and 85th Sts and between 5th and 6th Aves",35,35,40.7816,-73.9633,GPS,,D. E. Atha,,Brassica juncea (L.) Czern.,Plantae,Magnoliophyta,Brassicaceae,Brassica,juncea,,Species,,,
b7aa5f6f-9072-420a-a945-d1fd3738e95d,NY,PreservedSpecimen,2589690,14990,D. E. Atha,http://sweetgum.nybg.org/vh/specimen.php?irn=2890777,2015,North America,United States of America,New York,New York Co.,Central Park. Great Hill. Along path leading from 103rd St entrance to top of hill.  Between 103rd and 104th Sts and between 7th and 8th Aves,37,37,40.796,-73.9606,GPS,,D. E. Atha,,Brassica juncea (L.) Czern.,Plantae,Magnoliophyta,Brassicaceae,Brassica,juncea,,Species,,,
a86ef7a8-2895-4547-9a04-2297ac3c12e1,NY,PreservedSpecimen,2549596,15096,D. E. Atha,http://sweetgum.nybg.org/vh/specimen.php?irn=2913723,2015,North America,United States of America,New York,New York Co.,Central Park. Pool. Between 100th and 101st Streets and between 7th and 8th Avenues,20,20,40.7942,-73.9612,GPS,,D. E. Atha,,Brassica juncea (L.) Czern.,Plantae,Magnoliophyta,Brassicaceae,Brassica,juncea,,Species,,,
b190d2f9-67f5-4813-9849-2945944f4191,NY,PreservedSpecimen,2589614,15014,D. E. Atha,http://sweetgum.nybg.org/vh/specimen.php?irn=2911729,2015,North America,United States of America,New York,New York Co.,"Central Park. 97th Street Transverse, south side. Between 96th and 97th Streets and between 7th and 8th Avenues",28,28,40.7906,-73.9608,GPS,,D. E. Atha,,Styphnolobium japonicum (L.) Schott,Plantae,Magnoliophyta,Fabaceae,Styphnolobium,japonicum,,Species,,,
37e1b3da-9d3d-4aa8-a489-319f98ce64a0,NY,PreservedSpecimen,2549569,15069,D. E. Atha,http://sweetgum.nybg.org/vh/specimen.php?irn=2913575,2015,North America,United States of America,New York,New York Co.,"Central Park. 79th Street Transverse, on bridge over roadway. Between 78th and 79th Streets and between 7th and 8th Avenues",25,25,40.7801,-73.9712,GPS,,D. E. Atha,,Wisteria sinensis (Sims) Sweet,Plantae,Magnoliophyta,Fabaceae,Wisteria,sinensis,,Species,,,
d91b497f-0cae-493f-be1b-c2111929c735,NY,PreservedSpecimen,2450095,14495,D. E. Atha,http://sweetgum.nybg.org/vh/specimen.php?irn=2643319,2014,North America,United States of America,New York,New York Co.,"Central Park. Mount, at compost Area. Between 105th and 106th Streets and between 5th and 6th Avenues",46,46,40.7945,-73.9536,GPS,25,D. E. Atha,,Sisymbrium officinale (L.) Scop.,Plantae,Magnoliophyta,Brassicaceae,Sisymbrium,officinale,,Species,,,
88d1b948-84ae-4daa-93db-230ca55c8c6a,NY,PreservedSpecimen,2449877,14377,D. E. Atha,http://sweetgum.nybg.org/vh/specimen.php?irn=2624286,2014,North America,United States of America,New York,New York Co.,"Central Park, North Woods, between 108th and 109th Sts and between Lenox Ave and Adam Clayton Powell Jr Blvd",14,14,40.798,-73.9545,GPS,,D. E. Atha,,Capsella bursa-pastoris (L.) Medik.,Plantae,Magnoliophyta,Brassicaceae,Capsella,bursa-pastoris,,Species,,,
18f8e70d-55f1-4d08-b9cc-a54834792be1,NY,PreservedSpecimen,2449991,14591,D. E. Atha,http://sweetgum.nybg.org/vh/specimen.php?irn=2645763,2014,North America,United States of America,New York,New York Co.,Central Park. Ramble. At 79th Transverse and between 7th and 8th Aves,19,19,40.7796,-73.9709,GPS,25,D. E. Atha,,Cryptotaenia canadensis (L.) DC.,Plantae,Magnoliophyta,Apiaceae,Cryptotaenia,canadensis,,Species,,,
b60f955f-e875-440c-a11e-e8c7628c0b04,NY,PreservedSpecimen,2589679,14979,D. E. Atha,http://sweetgum.nybg.org/vh/specimen.php?irn=2890745,2015,North America,United States of America,New York,New York Co.,"Central Park. North Woods, Ravine. East of the Loch and west of the walking path.  Between 103rd and 104th Sts and between 6th and 7th Aves",25,25,40.7951,-73.9563,GPS,,D. E. Atha,,Alnus glutinosa (L.) Gaertn.,Plantae,Magnoliophyta,Betulaceae,Alnus,glutinosa,,Species,,,
830fc93e-c096-4ed9-8c4a-333b69d73737,NY,PreservedSpecimen,2456439,14639,D. E. Atha,http://sweetgum.nybg.org/vh/specimen.php?irn=2652390,2014,North America,United States of America,New York,New York Co.,Central Park.  Ramble.  Between 77th and 78th Sts at 6th Ave,30,30,40.7776,-73.9683,GPS,,D. E. Atha,,Catalpa speciosa (Warder ex Barney) Warder ex Engelm.,Plantae,Magnoliophyta,Bignoniaceae,Catalpa,speciosa,,Species,,,
fa297871-da55-449f-a622-4b496485748f,NY,PreservedSpecimen,1715660,85,J. V. Monachino,http://sweetgum.nybg.org/vh/specimen.php?irn=1916473,1936,North America,United States of America,New York,New York Co.,"[Manhattan] South of the reservoir, Central Park",,,40.7823,-73.9654,GEOLocate Web Application,2545,,,Dichanthelium scoparium (Lam.) Gould,Plantae,Magnoliophyta,Poaceae,Dichanthelium,scoparium,,Species,,,
7b80731b-d0bd-4c21-8b16-35768b62b132,NY,PreservedSpecimen,1715662,85,J. V. Monachino,http://sweetgum.nybg.org/vh/specimen.php?irn=1916475,1936,North America,United States of America,New York,New York Co.,"[Manhattan] South of the reservoir, Central Park",,,40.7823,-73.9654,GEOLocate Web Application,2545,,,Dichanthelium scoparium (Lam.) Gould,Plantae,Magnoliophyta,Poaceae,Dichanthelium,scoparium,,Species,,,
cd13e4e9-ca21-44ea-a405-fea0a2dd5bd1,NY,PreservedSpecimen,2456491,14691,D. E. Atha,http://sweetgum.nybg.org/vh/specimen.php?irn=2682158,2014,North America,United States of America,New York,New York Co.,Central Park. 79th St Transverse.  At 79th St and between 7th and 8th Aves,23,23,40.7805,-73.9717,GPS,,D. E. Atha,,Fallopia convolvulus (L.) Á.Löve,Plantae,Magnoliophyta,Polygonaceae,Fallopia,convolvulus,,Species,,,
8905feca-d4a7-41bb-a91a-81f205a53405,NY,PreservedSpecimen,2456493,14693,D. E. Atha,http://sweetgum.nybg.org/vh/specimen.php?irn=2682223,2014,North America,United States of America,New York,New York Co.,Central Park. 79th St Transverse. Between 79th and 80th Sts and between 5th and 6th Aves,46,46,40.7785,-73.9666,GPS,,D. E. Atha,,Fallopia convolvulus (L.) Á.Löve,Plantae,Magnoliophyta,Polygonaceae,Fallopia,convolvulus,,Species,,,
39612ee6-0c4c-421a-bad6-6b50c57598c5,NY,PreservedSpecimen,2589683,14983,D. E. Atha,http://sweetgum.nybg.org/vh/specimen.php?irn=2890750,2015,North America,United States of America,New York,New York Co.,Central Park. North Woods. West of the Marble Bench.  Between 105th and 106th Sts and between 6th and 7th Aves,27,27,40.7953,-73.9547,GPS,,D. E. Atha,,Amelanchier canadensis (L.) Medik.,Plantae,Magnoliophyta,Rosaceae,Amelanchier,canadensis,,Species,,,
94f438ca-becf-41dd-ae52-5ca73346fb11,NY,PreservedSpecimen,2589688,14988,D. E. Atha,http://sweetgum.nybg.org/vh/specimen.php?irn=2890774,2015,North America,United States of America,New York,New York Co.,Central Park. North Woods. Between 108th and 109th Sts and between 6th and 7th Aves,29,29,40.7981,-73.9548,GPS,,D. E. Atha,,Amelanchier canadensis (L.) Medik.,Plantae,Magnoliophyta,Rosaceae,Amelanchier,canadensis,,Species,,,
ea0b292b-ab74-4d83-9508-9025581bb9d9,NY,PreservedSpecimen,200254,s.n.,W. H. Wiegmann,http://sweetgum.nybg.org/vh/specimen.php?irn=2149975,1943,North America,United States of America,New York,New York Co.,"New York City, Central Park, at 90th Street and Eighth Ave (Central Park West)",,,,,,,D. E. Atha,,Photinia villosa (Thunb.) DC.,Plantae,Magnoliophyta,Rosaceae,Photinia,villosa,,Species,,,
de649447-46d6-4b72-8052-dfcc0c344bb3,NY,PreservedSpecimen,2589615,15015,D. E. Atha,http://sweetgum.nybg.org/vh/specimen.php?irn=2911735,2015,North America,United States of America,New York,New York Co.,"Central Park. 97th Street Transverse, south side. Between 96th and 97th Streets and between 6th and 7th Avenues",28,28,40.7898,-73.9588,GPS,,D. E. Atha,,Malus hupehensis (Pamp.) Rehder,Plantae,Magnoliophyta,Rosaceae,Malus,hupehensis,,Species,,,
06b124f1-d029-440d-9136-dcae478c8018,NY,PreservedSpecimen,2549571,15071,D. E. Atha,http://sweetgum.nybg.org/vh/specimen.php?irn=2913585,2015,North America,United States of America,New York,New York Co.,"Central Park. Ramble, south of weather station. Between 77th and 78th Streets and between 6th and 7th Avenues",34,34,40.779,-73.9696,GPS,,D. E. Atha,,Malus hupehensis (Pamp.) Rehder,Plantae,Magnoliophyta,Rosaceae,Malus,hupehensis,,Species,,,
1da0fa8c-a824-4477-93df-76e5c96ea362,NY,PreservedSpecimen,2457188,14888,D. E. Atha,http://sweetgum.nybg.org/vh/specimen.php?irn=2717997,2014,North America,United States of America,New York,New York Co.,"Central Park. Ramble, The Gill at Timothy Laupot Bridge.  Between 75th and 76th Sts and between 6th and 7th Aves",48,48,40.7777,-73.9707,GPS,25,D. E. Atha,,Castanea dentata (Marshall) Borkh.,Plantae,Magnoliophyta,Fagaceae,Castanea,dentata,,Species,,,
daa4a797-f824-48d7-a240-0971d4807c03,NY,PreservedSpecimen,2332590,319,C. L. Gilly,http://sweetgum.nybg.org/vh/specimen.php?irn=2528945,1940,North America,United States of America,New York,New York Co.,Central Park,,,40.7823,-73.9654,GEOLocate Web Application,2545,,,Broussonetia papyrifera (L.) L'Hér. ex Vent.,Plantae,Magnoliophyta,Moraceae,Broussonetia,papyrifera,,Species,,,
b48a8ed7-aed1-4f94-afc8-25aaa3d1b206,NY,PreservedSpecimen,2456449,15178,D. E. Atha,http://sweetgum.nybg.org/vh/specimen.php?irn=2673484,2014,North America,United States of America,New York,New York Co.,Central Park. Conservatory Garden. Between 105th and 106th St and between 5th and 6th Aves,7,7,40.7941,-73.9521,GPS,25,D. E. Atha,,Sagina japonica (Ohwi) Sw.,Plantae,Magnoliophyta,Caryophyllaceae,Sagina,japonica,,Species,,,
7bc9d3d6-bf55-4842-b413-8be783dd96a7,NY,PreservedSpecimen,2456488,14688,D. E. Atha,http://sweetgum.nybg.org/vh/specimen.php?irn=2681470,2014,North America,United States of America,New York,New York Co.,Central Park. 79th St Transverse.  At about 79th St and between 6th and 7th Aves,31,31,40.7787,-73.9679,GPS,,D. E. Atha,,Persicaria extremiorientalis (Vorosch.) Tzvelev,Plantae,Magnoliophyta,Polygonaceae,Persicaria,extremiorientalis,,Species,,,
068e685b-aa0f-492b-b02d-00d8d8ce679b,NY,PreservedSpecimen,2449875,14375,D. E. Atha,http://sweetgum.nybg.org/vh/specimen.php?irn=2624281,2014,North America,United States of America,New York,New York Co.,"Central Park, North Woods, between 108th and 109th Sts and between Lenox Ave and Adam Clayton Powell Jr Blvd",14,14,40.798,-73.9545,GPS,,D. E. Atha,,Crataegus mollis (Torr. & A.Gray) Scheele,Plantae,Magnoliophyta,Rosaceae,Crataegus,mollis,,Species,,,
077aba0e-5574-4c71-9979-104826aa723b,NY,PreservedSpecimen,2549565,15065,D. E. Atha,http://sweetgum.nybg.org/vh/specimen.php?irn=2913566,2015,North America,United States of America,New York,New York Co.,Central Park. Summit Rock at Diana Ross Playground. Between 81st and 82nd Streets and between 7th and 8th Avenues,27,27,40.7821,-73.9711,GPS,,D. E. Atha,,Osmorhiza claytonii (Michx.) C.B.Clarke,Plantae,Magnoliophyta,Apiaceae,Osmorhiza,claytonii,,Species,,,
145d29ee-53e7-4673-95cd-e982be7bb58e,NY,PreservedSpecimen,2456597,14597,D. E. Atha,http://sweetgum.nybg.org/vh/specimen.php?irn=2691697,2014,North America,United States of America,New York,New York Co.,"Central Park. Ramble, north of the Boathouse.  Between 76th and 77th Sts and between 5th and 6th Aves",24,24,40.7766,-73.9677,GPS,25,D. E. Atha,,Schedonorus arundinaceus (Schreb.) Dumort.,Plantae,Magnoliophyta,Poaceae,Schedonorus,arundinaceus,,Species,,,
34eb18a5-ba07-475c-ba59-ce87e63ef00b,NY,PreservedSpecimen,2549563,15063,D. E. Atha,http://sweetgum.nybg.org/vh/specimen.php?irn=2913562,2015,North America,United States of America,New York,New York Co.,"Central Park. Great Hill, on cliffs west of the Peter Jay Sharp Children's Glade, between 104th and 105th Streets and between 7th and 8th Avenues",31,31,40.797,-73.9605,GPS,,D. E. Atha,,Parthenocissus inserta (A.Kern.) Fritsch,Plantae,Magnoliophyta,Vitaceae,Parthenocissus,inserta,,Species,,,
43b611e6-ded7-414b-9719-c7628ffbf07d,NY,PreservedSpecimen,2549568,15068,D. E. Atha,http://sweetgum.nybg.org/vh/specimen.php?irn=2913571,2015,North America,United States of America,New York,New York Co.,"Central Park. 79th Street Transverse, on bridge over roadway. Between 78th and 79th Streets and between 7th and 8th Avenues",25,25,40.7801,-73.9712,GPS,,D. E. Atha,,Parthenocissus quinquefolia (L.) Planch.,Plantae,Magnoliophyta,Vitaceae,Parthenocissus,quinquefolia,,Species,,,
82d7693f-0ee2-4e9c-927f-493c9a704539,NY,PreservedSpecimen,2456490,14690,D. E. Atha,http://sweetgum.nybg.org/vh/specimen.php?irn=2681471,2014,North America,United States of America,New York,New York Co.,Central Park. 79th St Transverse.  At about 79th St and 6th Ave,31,31,40.778,-73.9656,GPS,,D. E. Atha,,Parthenocissus tricuspidata (Siebold & Zucc.) Planch.,Plantae,Magnoliophyta,Vitaceae,Parthenocissus,tricuspidata,,Species,,,
4278dc89-503f-4f29-8e33-49dd8315670b,NY,PreservedSpecimen,2456356,14706,D. E. Atha,http://sweetgum.nybg.org/vh/specimen.php?irn=2686389,2014,North America,United States of America,New York,New York Co.,"Central Park.  Great Lawn, just south of the 86th St. Transverse. Between 85th and 86th Sts and between 5th and 6th Aves",35,35,40.7828,-73.9638,GPS,,D. E. Atha,,Securigera varia (L.) Lassen,Plantae,Magnoliophyta,Fabaceae,Securigera,varia,,Species,,,
cef3e840-85b0-4d0a-ab11-d20e1b222c5b,NY,PreservedSpecimen,2589650,14950,D. E. Atha,http://sweetgum.nybg.org/vh/specimen.php?irn=2890193,2014,North America,United States of America,New York,New York Co.,Central Park. Hallett Nature Sanctuary. Between 60th and 61st St and between 5th and 6th Aves,25,25,40.766,-73.9744,GPS,,D. E. Atha,,Tetradium daniellii (Benn.) T.G.Hartley,Plantae,Magnoliophyta,Rutaceae,Tetradium,daniellii,,Species,,,
7ea7ba25-04dd-4298-9935-3aca861f5ea2,NY,PreservedSpecimen,2377729,s.n.,E. H. Day,http://sweetgum.nybg.org/vh/specimen.php?irn=2618186,1876,North America,United States of America,New York,New York Co.,Central Park,,,40.7823,-73.9654,GEOLocate Web Application,2545,D. E. Atha,,Acer rubrum L.,Plantae,Magnoliophyta,Sapindaceae,Acer,rubrum,,Species,,,
ef37250b-9962-4351-a7c1-34b342cb2e30,NY,PreservedSpecimen,2377744,s.n.,A. M. Isaacs,http://sweetgum.nybg.org/vh/specimen.php?irn=2618582,1890,North America,United States of America,New York,New York Co.,"Central Park, Ramble",,,40.7823,-73.9654,GEOLocate Web Application,2545,D. E. Atha,,Acer rubrum L.,Plantae,Magnoliophyta,Sapindaceae,Acer,rubrum,,Species,,,
bb794b58-b3a8-4b9e-b254-1f7687c38f9a,NY,PreservedSpecimen,2549595,15095,D. E. Atha,http://sweetgum.nybg.org/vh/specimen.php?irn=2913714,2015,North America,United States of America,New York,New York Co.,Central Park. Pool. Between 101st and 102nd Streets and between 7th and 8th Avenues,20,20,40.7945,-73.9614,GPS,,D. E. Atha,,Ligustrum obtusifolium Siebold & Zucc.,Plantae,Magnoliophyta,Oleaceae,Ligustrum,obtusifolium,,Species,,,
54d84900-773f-4dba-8a38-69989e2579f0,NY,PreservedSpecimen,2589656,14956,D. E. Atha,http://sweetgum.nybg.org/vh/specimen.php?irn=2890452,2015,North America,United States of America,New York,New York Co.,Central Park. Great Hill. Between 103rd and 104th Streets and between 7th and 8th Aves,33,33,40.7959,-73.9605,GPS,,D. E. Atha,,Hamamelis x intermedia Rehder,Plantae,Magnoliophyta,Hamamelidaceae,Hamamelis,x intermedia,,Species,,,
75408bfc-1b37-45ac-8a36-12bea8768f22,NY,PreservedSpecimen,2456433,14633,D. E. Atha,http://sweetgum.nybg.org/vh/specimen.php?irn=2652374,2014,North America,United States of America,New York,New York Co.,"Central Park.  Ramble, on the Point.  Between 73rd and 74th Sts at 6th Ave",21,21,40.7757,-73.9699,GPS,,D. E. Atha,,Cornus racemosa Lam.,Plantae,Magnoliophyta,Cornaceae,Cornus,racemosa,,Species,,,
8326ec3f-f2ef-4462-92e4-ae94c19ba3d2,NY,PreservedSpecimen,2456331,14534,D. E. Atha,http://sweetgum.nybg.org/vh/specimen.php?irn=2643393,2014,North America,United States of America,New York,New York Co.,Central Park. Hallett Nature Sanctuary. Between 60th and 61st St and between 5th and 6th Aves,20,20,40.7668,-73.9753,GPS,50,"H. E. Ballard, Jr.",,Viola striata Aiton,Plantae,Magnoliophyta,Violaceae,Viola,striata,,Species,,,
b78dcaa6-4e39-4ced-aa6c-bb483e517ccf,NY,PreservedSpecimen,2589678,14978,D. E. Atha,http://sweetgum.nybg.org/vh/specimen.php?irn=2890744,2015,North America,United States of America,New York,New York Co.,"Central Park. North Woods, Ravine. East of the Loch and west of the walking path.  Between 103rd and 104th Sts and between 6th and 7th Aves",25,25,40.7951,-73.9563,GPS,,D. E. Atha,,Salix nigra Marshall,Plantae,Magnoliophyta,Salicaceae,Salix,nigra,,Species,,,
f3222fb4-ea09-4010-b470-d65626506e0e,NY,PreservedSpecimen,2449876,14376,D. E. Atha,http://sweetgum.nybg.org/vh/specimen.php?irn=2624283,2014,North America,United States of America,New York,New York Co.,"Central Park, North Woods, between 108th and 109th Sts and between Lenox Ave and Adam Clayton Powell Jr Blvd",14,14,40.798,-73.9545,GPS,,D. E. Atha,,Acer platanoides L.,Plantae,Magnoliophyta,Sapindaceae,Acer,platanoides,,Species,,,
05465e10-c5da-467e-9b57-41bfe0a17589,NY,PreservedSpecimen,2377713,s.n.,A. M. Isaacs,http://sweetgum.nybg.org/vh/specimen.php?irn=2615835,1890,North America,United States of America,New York,New York Co.,"Central Park, opposite Statue of Lioness [see notes]",,,,,,,D. E. Atha,,Acer platanoides L.,Plantae,Magnoliophyta,Sapindaceae,Acer,platanoides,,Species,,,
30d6a231-adcf-4eb0-9833-cd7a74ddcef3,NY,PreservedSpecimen,2377719,7,R. I. Vargas,http://sweetgum.nybg.org/vh/specimen.php?irn=2616542,1998,North America,United States of America,New York,New York Co.,"Central Park, at gate entrance of Central Park West at 100 Street",,,,,,,D. E. Atha,,Acer pseudoplatanus L.,Plantae,Magnoliophyta,Sapindaceae,Acer,pseudoplatanus,,Species,,,
ba1f20fe-2806-4716-9e04-2704c1520a07,NY,PreservedSpecimen,2377721,s.n.,A. M. Isaacs,http://sweetgum.nybg.org/vh/specimen.php?irn=2616553,1890,North America,United States of America,New York,New York Co.,Central Park near 79th St.,,,,,,,D. E. Atha,,Acer pseudoplatanus L.,Plantae,Magnoliophyta,Sapindaceae,Acer,pseudoplatanus,,Species,,,
c7d97683-0887-42c2-83ec-ebcef7f26bda,NY,PreservedSpecimen,2377722,76,E. H. Day,http://sweetgum.nybg.org/vh/specimen.php?irn=2616600,,North America,United States of America,New York,New York Co.,Central Park,,,40.7823,-73.9654,GEOLocate Web Application,2545,D. E. Atha,,Acer pseudoplatanus L.,Plantae,Magnoliophyta,Sapindaceae,Acer,pseudoplatanus,,Species,,,
eac62998-c218-4b41-8d9d-cf0a2326c35d,NY,PreservedSpecimen,2456368,14718,D. E. Atha,http://sweetgum.nybg.org/vh/specimen.php?irn=2686487,2014,North America,United States of America,New York,New York Co.,Central Park. Reservoir. Between 86th and 87th Sts and between 7th and 8th Aves,47,47,40.7848,-73.9674,GPS,,D. E. Atha,,Acer pseudoplatanus L.,Plantae,Magnoliophyta,Sapindaceae,Acer,pseudoplatanus,,Species,,,
32fca20b-9868-463d-b891-4e045d022bb6,NY,PreservedSpecimen,2457027,14927,D. E. Atha,http://sweetgum.nybg.org/vh/specimen.php?irn=2733259,2014,North America,United States of America,New York,New York Co.,Central Park. Great Hill. Between 102nd and 103rd St. and between 7th and 8th Aves,28,28,40.7952,-73.9597,GPS,25,D. E. Atha,,Solidago macrophylla Pursh,Plantae,Magnoliophyta,Asteraceae,Solidago,macrophylla,,Species,,,
8f3bbabd-d463-4f90-809b-5b0d085b3d6d,NY,PreservedSpecimen,2456565,14535,D. E. Atha,http://sweetgum.nybg.org/vh/specimen.php?irn=2691627,2014,North America,United States of America,New York,New York Co.,Central Park. Hallett Nature Sanctuary. Between 60th and 61st St and between 5th and 6th Aves,20,20,40.7668,-73.9753,GPS,50,D. E. Atha,,Danthonia compressa Austin,Plantae,Magnoliophyta,Poaceae,Danthonia,compressa,,Species,,,
fad1c3e1-8ec2-4540-b294-c2ee3d7032f3,NY,PreservedSpecimen,2589687,14987,D. E. Atha,http://sweetgum.nybg.org/vh/specimen.php?irn=2890772,2015,North America,United States of America,New York,New York Co.,Central Park. North Woods. Between 108th and 109th Sts and between 7th and 8th Aves,33,33,40.799,-73.9562,GPS,,D. E. Atha,,Ulmus americana L.,Plantae,Magnoliophyta,Ulmaceae,Ulmus,americana,,Species,,,
14ba28e6-cf66-4dfe-812f-c850e2506639,NY,PreservedSpecimen,2449891,14391,D. E. Atha,http://sweetgum.nybg.org/vh/specimen.php?irn=2624758,2014,North America,United States of America,New York,New York Co.,"Central Park, Ramble at north shore of Lake, 50–75 m W of the boathouse, between 74th and 75th Sts at about 6th Ave",18,18,40.7752,-73.9698,GPS,,D. E. Atha,,Ulmus glabra Huds.,Plantae,Magnoliophyta,Ulmaceae,Ulmus,glabra,,Species,,,
4a6da721-100f-4157-b4ab-1652dba954cc,NY,PreservedSpecimen,17363,s.n.,A. Pember,http://sweetgum.nybg.org/vh/specimen.php?irn=620003,,North America,United States of America,New York,New York Co.,Central Park,,,40.7823,-73.9654,GEOLocate Web Application,2545,,,Ginkgo biloba L.,Plantae,Ginkgophyta,Ginkgoaceae,Ginkgo,biloba,,Species,,,
3298b17c-3d7a-4cca-9a9b-f87ad9cebe92,NY,PreservedSpecimen,17365,s.n.,W. M. Canby,http://sweetgum.nybg.org/vh/specimen.php?irn=620005,1887,North America,United States of America,New York,New York Co.,Central Park,,,40.7823,-73.9654,GEOLocate Web Application,2545,,,Ginkgo biloba L.,Plantae,Ginkgophyta,Ginkgoaceae,Ginkgo,biloba,,Species,,,
ddac075d-2d94-44d1-9b09-8c5e79799280,NY,PreservedSpecimen,2589680,14980,D. E. Atha,http://sweetgum.nybg.org/vh/specimen.php?irn=2890747,2015,North America,United States of America,New York,New York Co.,"Central Park. North Woods, Ravine. East of the Loch and west of the walking path.  Between 103rd and 104th Sts and between 6th and 7th Aves",25,25,40.7951,-73.9563,GPS,,D. E. Atha,,Symplocarpus foetidus (L.) W.Salisb. ex W.P.C.Barton,Plantae,Magnoliophyta,Araceae,Symplocarpus,foetidus,,Species,,,
2fa65bc4-d38e-4435-b6da-1edabe656154,NY,PreservedSpecimen,2350521,,,http://sweetgum.nybg.org/vh/specimen.php?irn=2572670,1948,North America,United States of America,New York,New York Co.,"Central Park, Manhattan.",,,40.7823,-73.9654,GEOLocate Web Application,2545,,,Egeria densa Planch.,Plantae,Magnoliophyta,Hydrocharitaceae,Egeria,densa,,Species,,,
f057d449-86aa-4d83-b688-9f755cb5c8be,NY,PreservedSpecimen,2456316,14516,D. E. Atha,http://sweetgum.nybg.org/vh/specimen.php?irn=2643378,2014,North America,United States of America,New York,New York Co.,"Central Park, North Woods, between 108th and 109th Sts and between 6th and 7th Aves",14,14,40.7979,-73.9547,GPS,25,D. E. Atha,,Smilax rotundifolia L.,Plantae,Magnoliophyta,Smilacaceae,Smilax,rotundifolia,,Species,,,
55fb6ee4-3362-4400-9b3e-a6498e231ec8,NY,PreservedSpecimen,2549594,15094,D. E. Atha,http://sweetgum.nybg.org/vh/specimen.php?irn=2913713,2015,North America,United States of America,New York,New York Co.,Central Park. Pool. Between 101st and 102nd Streets and between 7th and 8th Avenues,16,16,40.7945,-73.9613,GPS,,D. E. Atha,,Potamogeton crispus L.,Plantae,Magnoliophyta,Potamogetonaceae,Potamogeton,crispus,,Species,,,
24c4e3a5-9e84-4c53-b5f4-5b58af093f8a,NY,PreservedSpecimen,2589663,14963,D. E. Atha,http://sweetgum.nybg.org/vh/specimen.php?irn=2890715,2015,North America,United States of America,New York,New York Co.,Central Park. Lake at Wagner Cove. Between 70th and 71st Sts and between 7th and 8th Aves,18,18,40.7745,-73.9737,GPS,,D. E. Atha,,Allium vineale L.,Plantae,Magnoliophyta,Amaryllidaceae,Allium,vineale,,Species,,,
d918ca93-10f0-45cd-87c3-7edc7965d652,NY,PreservedSpecimen,2449884,14384,D. E. Atha,http://sweetgum.nybg.org/vh/specimen.php?irn=2624362,2014,North America,United States of America,New York,New York Co.,"Central Park, Ramble at north edge of Boathouse parking lot, between 76th and 77th Sts and between 5th Ave and Lenox Ave",22,22,40.7759,-73.9679,GPS,,D. E. Atha,,Allium ursinum L.,Plantae,Magnoliophyta,Amaryllidaceae,Allium,ursinum,,Species,,,
06c36ae1-b95d-4af0-8bb8-0dd2ed707143,NY,PreservedSpecimen,2450065,14465,D. E. Atha,http://sweetgum.nybg.org/vh/specimen.php?irn=2643276,2014,North America,United States of America,New York,New York Co.,"Central Park. Tennis House, north of the Tennis Courts, between 96th and 97th Streets and between 6th and 7th Avenues",31,31,40.7905,-73.9611,GPS,25,D. E. Atha,,Allium x proliferum (Moench) Schrad. ex Willd.,Plantae,Magnoliophyta,Amaryllidaceae,Allium,proliferum,,Species,,,
c63efce7-90ad-4906-9832-1ae2f76d024e,NY,PreservedSpecimen,2589661,14961,D. E. Atha,http://sweetgum.nybg.org/vh/specimen.php?irn=2890542,2015,North America,United States of America,New York,New York Co.,Central Park. Strawberry Fields. Between 71st and 72nd Sts and between 7th and 8th Aves,27,27,40.7754,-73.9754,GPS,,D. E. Atha,,Galanthus nivalis 'Flore Pleno' L.,Plantae,Magnoliophyta,Amaryllidaceae,Galanthus,nivalis,,Species,,,
ec45cc29-7284-41b0-8d7c-15d87adf6657,NY,PreservedSpecimen,2456409,14609,D. E. Atha,http://sweetgum.nybg.org/vh/specimen.php?irn=2652019,2014,North America,United States of America,New York,New York Co.,Central Park.  Ramble.  Between 78th and 79th Sts and between 6th and 7th Aves,48,48,40.7781,-73.9684,GPS,,D. E. Atha,,Polygonatum biflorum var. commutatum (Schult.f.) Morong,Plantae,Magnoliophyta,Asparagaceae,Polygonatum,biflorum,commutatum,Variety,(Schult.f.) Morong,,
ff16b870-5b15-4cc0-8921-eacdff76966b,NY,PreservedSpecimen,2549566,15066,D. E. Atha,http://sweetgum.nybg.org/vh/specimen.php?irn=2913735,2015,North America,United States of America,New York,New York Co.,"Central Park. Shakespeare and Delacorte, at the Charles B. Stover Bench, aka ""whisper bench"". Between 78th and 79th Streets and between 7th and 8th Avenues",33,33,40.7799,-73.9696,GPS,,D. E. Atha,,Pseudofumaria lutea (L.) Borkh.,Plantae,Magnoliophyta,Papaveraceae,Pseudofumaria,lutea,,Species,,,
04717ee4-be0e-4c4a-b198-c61c8121af0a,NY,PreservedSpecimen,2549583,15083,D. E. Atha,http://sweetgum.nybg.org/vh/specimen.php?irn=2913740,2015,North America,United States of America,New York,New York Co.,Central Park. Ramble. Between 77th and 78th Streets and between 6th and 7th Avenues,29,29,40.7788,-73.9704,GPS,,D. E. Atha,,Tiarella cordifolia L.,Plantae,Magnoliophyta,Saxifragaceae,Tiarella,cordifolia,,Species,,,
02f3661c-bcec-4997-b275-f2eb06d1b72e,NY,PreservedSpecimen,2456494,14694,D. E. Atha,http://sweetgum.nybg.org/vh/specimen.php?irn=2682224,2014,North America,United States of America,New York,New York Co.,Central Park. 79th St Transverse. Between 79th and 80th Sts and between 5th and 6th Aves,46,46,40.7785,-73.9666,GPS,,D. E. Atha,,Epipactis helleborine (L.) Crantz,Plantae,Magnoliophyta,Orchidaceae,Epipactis,helleborine,,Species,,,
a8f5aa1c-a333-4e2a-9cb3-d5f469e0a20c,NY,PreservedSpecimen,2456296,14596,D. E. Atha,http://sweetgum.nybg.org/vh/specimen.php?irn=2645766,2014,North America,United States of America,New York,New York Co.,"Central Park. Ramble, north of the Boathouse.  Between 75th and 76th Sts and between 5th and 6th Aves",24,24,40.776,-73.9685,GPS,25,D. E. Atha,,Carex swanii (Fernald) Mack.,Plantae,Magnoliophyta,Cyperaceae,Carex,swanii,,Species,,,
5fa18e63-540d-4298-88b9-878d28f4d0e6,NY,PreservedSpecimen,2688645,15645,D. E. Atha,http://sweetgum.nybg.org/vh/specimen.php?irn=2978911,2016,North America,United States of America,New York,New York Co.,"Central Park. Yard, west of Winterdale Arch and east of Diana Ross Playground, along Bridle Path. Between 81st and 82nd Streets and between 7th and 8th Avenues",26,26,40.7817,-73.9699,GPS,,D. E. Atha,,Fraxinus profunda (Bush) Bush,Plantae,Magnoliophyta,Oleaceae,Fraxinus,profunda,,Species,,,
ffb6bb25-d5f7-4800-8fdf-6fe03b612a60,NY,PreservedSpecimen,370856,,M. Dows,http://sweetgum.nybg.org/vh/specimen.php?irn=180071,1884,North America,United States of America,New York,New York Co.,Central Park,,,40.7823,-73.9654,GEOLocate Web Application,2545,,,Schistidium apocarpum (Hedw.) Bruch & Schimp.,Plantae,Bryophyta,Grimmiaceae,Schistidium,apocarpum,,Species,,,
c4f33d1d-c3ec-4b88-9f05-1dc24276de87,NY,PreservedSpecimen,64402,s.n.,M. Timmerman,http://sweetgum.nybg.org/vh/specimen.php?irn=409880,1884,North America,United States of America,New York,New York Co.,"Central Park, New York City",,,40.7823,-73.9654,GEOLocate Web Application,2545,,,Cryptomeria japonica (Thunb. ex L.f.) D.Don,Plantae,Pinophyta,Cupressaceae,Cryptomeria,japonica,,Species,,,
b83de071-730d-4b60-b306-558b4191068f,NY,PreservedSpecimen,2457193,14893,D. E. Atha,http://sweetgum.nybg.org/vh/specimen.php?irn=2718072,2014,North America,United States of America,New York,New York Co.,Central Park. Ramble. Between 76th and 77th Sts and between 5th and 6th Aves,34,34,40.7777,-73.9682,GPS,25,D. E. Atha,,Nyssa sylvatica Marshall,Plantae,Magnoliophyta,Nyssaceae,Nyssa,sylvatica,,Species,,,
b3a6d865-052f-4d9d-8a56-7d716f2213b1,NY,PreservedSpecimen,2589608,15008,D. E. Atha,http://sweetgum.nybg.org/vh/specimen.php?irn=2911640,2015,North America,United States of America,New York,New York Co.,Central Park. Strawberry Fields. Between 71st and 72nd Streets and between 7th and 8th Avenues,26,26,40.7752,-73.9751,GPS,,D. E. Atha,,Glechoma hederacea L.,Plantae,Magnoliophyta,Lamiaceae,Glechoma,hederacea,,Species,,,
0297977d-ba91-4081-9d40-aad27017ded7,NY,PreservedSpecimen,579203,B-161,J. Silba,http://sweetgum.nybg.org/vh/specimen.php?irn=498899,2000,North America,United States of America,New York,New York Co.,"Manhattan. Central Park, Arthur Ross Pinetum, near 80th Street, in central part of park, near Park Service Building area",,,40.6639,-73.9383,GEOLocate Web Application,14542,,,Pinus heldreichii Christ,Plantae,Pinophyta,Pinaceae,Pinus,heldreichii,,Species,,,
cdb3374c-7b9c-4615-ae4e-2cfcef91f876,NY,PreservedSpecimen,579204,B-161,J. Silba,http://sweetgum.nybg.org/vh/specimen.php?irn=498900,2000,North America,United States of America,New York,New York Co.,"Manhattan. Central Park, Arthur Ross Pinetum, near 80th Street, in central part of park, near Park Service Building area",,,40.6639,-73.9383,GEOLocate Web Application,14542,,,Pinus heldreichii Christ,Plantae,Pinophyta,Pinaceae,Pinus,heldreichii,,Species,,,
13b6c114-2c36-425c-983a-a8b302e11841,NY,PreservedSpecimen,579170,B-164,J. Silba,http://sweetgum.nybg.org/vh/specimen.php?irn=186879,2000,North America,United States of America,New York,New York Co.,"Central Park, Arthur Ross Pinetum, in closed circle area with Sciadopitys near Park Service building",,,40.6639,-73.9383,GEOLocate Web Application,14542,,,Pinus bungeana Zucc. ex Endl.,Plantae,Pinophyta,Pinaceae,Pinus,bungeana,,Species,,,
f00a7c50-63f8-4053-8496-aa5a4dd04022,NY,PreservedSpecimen,579180,B-162,J. Silba,http://sweetgum.nybg.org/vh/specimen.php?irn=107847,2000,North America,United States of America,New York,New York Co.,"Central Park, Arthur Ross Pinetum, near 80th Street, in central part of park, south end of upper ball field. Manhattan",,,40.6639,-73.9383,GEOLocate Web Application,14542,,,Pinus wallichiana A.B.Jacks.,Plantae,Pinophyta,Pinaceae,Pinus,wallichiana,,Species,,,
7192efee-61ee-4f9a-b5b8-fb402b815487,NY,PreservedSpecimen,579181,B-162,J. Silba,http://sweetgum.nybg.org/vh/specimen.php?irn=107848,2000,North America,United States of America,New York,New York Co.,"Central Park, Arthur Ross Pinetum, near 80th Street, in central part of park, south end of upper ball field. Manhattan",,,40.6639,-73.9383,GEOLocate Web Application,14542,,,Pinus wallichiana A.B.Jacks.,Plantae,Pinophyta,Pinaceae,Pinus,wallichiana,,Species,,,
2be06f9b-95ab-40cb-a441-79242ffbfbd1,NY,PreservedSpecimen,579171,B-163,J. Silba,http://sweetgum.nybg.org/vh/specimen.php?irn=107846,2000,North America,United States of America,New York,New York Co.,"Central Park, Arthur Ross Pinetum, near 80th Street, Manhattan. In central part of park, W of ball field",,,40.6639,-73.9383,GEOLocate Web Application,14542,,,Pinus wallichiana A.B.Jacks.,Plantae,Pinophyta,Pinaceae,Pinus,wallichiana,,Species,,,
ea370fc8-c65c-4a89-82d6-0c67127ffbcb,NY,PreservedSpecimen,2236134,14134,D. E. Atha,http://sweetgum.nybg.org/vh/specimen.php?irn=2391933,2013,North America,United States of America,New York,New York Co.,"Central Park, Hallett Nature Sanctuary, between 61st and 62nd Sts and between 5th and 6th Avenues",7,7,40.7659,-73.9744,,,D. E. Atha,,Quercus palustris Muenchh.,Plantae,Magnoliophyta,Fagaceae,Quercus,palustris,,Species,,,
924c777d-6960-4f20-b953-34a78187f611,NY,PreservedSpecimen,2236135,14135,D. E. Atha,http://sweetgum.nybg.org/vh/specimen.php?irn=2391937,2013,North America,United States of America,New York,New York Co.,"Central Park, Hallett Nature Sanctuary, between 61st and 62nd Sts and between 5th and 6th Avenues",7,7,40.7659,-73.9744,,,D. E. Atha,,Photinia villosa (Thunb.) DC.,Plantae,Magnoliophyta,Rosaceae,Photinia,villosa,,Species,,,
d006e73d-3bde-4ca0-a7e5-76d782acbbac,NY,PreservedSpecimen,2236136,14136,D. E. Atha,http://sweetgum.nybg.org/vh/specimen.php?irn=2391939,2013,North America,United States of America,New York,New York Co.,"Central Park, Hallett Nature Sanctuary, between 61st and 62nd Sts and between 5th and 6th Avenues",7,7,40.7659,-73.9744,,,D. E. Atha,,Albizia julibrissin Durazz.,Plantae,Magnoliophyta,Fabaceae,Albizia,julibrissin,,Species,,,
dde155ed-eb54-4ca8-a350-4f4d9a53e223,NY,PreservedSpecimen,2236137,14137,D. E. Atha,http://sweetgum.nybg.org/vh/specimen.php?irn=2391940,2013,North America,United States of America,New York,New York Co.,"Central Park, Hallett Nature Sanctuary, between 61st and 62nd Sts and between 5th and 6th Avenues",14,14,40.7661,-73.9748,,,D. E. Atha,,Quercus phellos L.,Plantae,Magnoliophyta,Fagaceae,Quercus,phellos,,Species,,,
24f1282c-bab9-40a9-9c47-ba8fb2750b95,NY,PreservedSpecimen,2236138,14138,D. E. Atha,http://sweetgum.nybg.org/vh/specimen.php?irn=2391949,2013,North America,United States of America,New York,New York Co.,"Central Park, Hallett Nature Sanctuary, between 61st and 62nd Sts and between 5th and 6th Avenues",15,15,40.7662,-73.9748,,,D. E. Atha,,Parthenocissus tricuspidata (Siebold & Zucc.) Planch.,Plantae,Magnoliophyta,Vitaceae,Parthenocissus,tricuspidata,,Species,,,
6556198b-3c8e-401e-b3ee-2efaf10681e2,NY,PreservedSpecimen,2236141,14141,D. E. Atha,http://sweetgum.nybg.org/vh/specimen.php?irn=2391952,2013,North America,United States of America,New York,New York Co.,"Central Park, Hallett Nature Sanctuary, between 61st and 62nd Sts and between 5th and 6th Avenues",15,15,40.7662,-73.9748,,,D. E. Atha,,Acer rubrum L.,Plantae,Magnoliophyta,Sapindaceae,Acer,rubrum,,Species,,,
1a6ab4c3-8a95-41a8-9bb5-5e28f00ced6f,NY,PreservedSpecimen,2236140,14140,D. E. Atha,http://sweetgum.nybg.org/vh/specimen.php?irn=2391951,2013,North America,United States of America,New York,New York Co.,"Central Park, Hallett Nature Sanctuary, between 61st and 62nd Sts and between 5th and 6th Avenues",15,15,40.7662,-73.9748,,,D. E. Atha,,Acer saccharum Marshall,Plantae,Magnoliophyta,Sapindaceae,Acer,saccharum,,Species,,,
9571fe25-afa2-4cbb-a2e5-473a16763b14,NY,PreservedSpecimen,2236139,14139,D. E. Atha,http://sweetgum.nybg.org/vh/specimen.php?irn=2391950,2013,North America,United States of America,New York,New York Co.,"Central Park, Hallett Nature Sanctuary, between 61st and 62nd Sts and between 5th and 6th Avenues",15,15,40.7662,-73.9748,,,D. E. Atha,,Ginkgo biloba L.,Plantae,Ginkgophyta,Ginkgoaceae,Ginkgo,biloba,,Species,,,
7560cd0a-cc4d-448a-b5db-e296232981cd,NY,PreservedSpecimen,2236142,14142,D. E. Atha,http://sweetgum.nybg.org/vh/specimen.php?irn=2391953,2013,North America,United States of America,New York,New York Co.,"Central Park, Hallett Nature Sanctuary, between 61st and 62nd Sts and between 5th and 6th Avenues",15,15,40.7661,-73.975,,,D. E. Atha,,Eurybia divaricata (L.) G.L.Nesom,Plantae,Magnoliophyta,Asteraceae,Eurybia,divaricata,,Species,,,
a21a65ab-f30f-4191-9b74-ede3470ae2bf,NY,PreservedSpecimen,2236145,14145,D. E. Atha,http://sweetgum.nybg.org/vh/specimen.php?irn=2391956,2013,North America,United States of America,New York,New York Co.,"Central Park, Hallett Nature Sanctuary, between 61st and 62nd Sts and between 5th and 6th Avenues",15,15,40.7661,-73.975,,,D. E. Atha,,Symphyotrichum lanceolatum (Willd.) G.L.Nesom var. lanceolatum,Plantae,Magnoliophyta,Asteraceae,Symphyotrichum,lanceolatum,lanceolatum,Variety,(Willd.) G.L.Nesom,,
4b8a3bb7-0276-4044-a2f7-e0df2967b9ad,NY,PreservedSpecimen,2236146,14146,D. E. Atha,http://sweetgum.nybg.org/vh/specimen.php?irn=2391957,2013,North America,United States of America,New York,New York Co.,"Central Park, Hallett Nature Sanctuary, between 61st and 62nd Sts and between 5th and 6th Avenues",8,8,40.7658,-73.9747,,,D. E. Atha,,Betula lenta L.,Plantae,Magnoliophyta,Betulaceae,Betula,lenta,,Species,,,
0adc1430-6d3f-48ee-8814-c757cf9c36b9,NY,PreservedSpecimen,2236147,14147,D. E. Atha,http://sweetgum.nybg.org/vh/specimen.php?irn=2391958,2013,North America,United States of America,New York,New York Co.,"Central Park, Hallett Nature Sanctuary, between 61st and 62nd Sts and between 5th and 6th Avenues",8,8,40.7658,-73.9747,,,D. E. Atha,,Euonymus alatus (Thunb.) Siebold,Plantae,Magnoliophyta,Celastraceae,Euonymus,alatus,,Species,,,
c5177e58-7a1a-425a-b9a5-dd20b7563c9b,NY,PreservedSpecimen,2360466,14266,D. E. Atha,http://sweetgum.nybg.org/vh/specimen.php?irn=2415985,2014,North America,United States of America,New York,New York Co.,"Central Park. Great Hill, southwest slope between 103rd and 104th Sts and between Adam Clayton Powell, Jr. Blvd and Central Park West",36,36,40.7959,-73.9602,,,D. E. Atha,,Stellaria media (L.) Vill.,Plantae,Magnoliophyta,Caryophyllaceae,Stellaria,media,,Species,,,
a4187f94-118c-4a0b-9aec-c0f3979861cb,NY,PreservedSpecimen,2360464,14264,D. E. Atha,http://sweetgum.nybg.org/vh/specimen.php?irn=2412642,2014,North America,United States of America,New York,New York Co.,"Central Park. Great Hill, southwest slope between 103rd and 104th Sts and between Adam Clayton Powell, Jr. Blvd and Central Park West",36,36,40.7959,-73.9602,,,D. E. Atha,,Taraxacum officinale F.H.Wigg.,Plantae,Magnoliophyta,Asteraceae,Taraxacum,officinale,,Species,,,
3bf515a0-1adb-4cba-96f8-62eebe8cddd1,NY,PreservedSpecimen,2360465,14265,D. E. Atha,http://sweetgum.nybg.org/vh/specimen.php?irn=2412649,2014,North America,United States of America,New York,New York Co.,"Central Park. Great Hill, southwest slope between 103rd and 104th Sts and between Adam Clayton Powell, Jr. Blvd and Central Park West",36,36,40.7959,-73.9602,,,D. E. Atha,,Xanthorhiza simplicissima Marshall,Plantae,Magnoliophyta,Ranunculaceae,Xanthorhiza,simplicissima,,Species,,,
1f72bb62-58c5-4dc6-99dd-7ebaa4695aad,NY,PreservedSpecimen,2360463,14263,D. E. Atha,http://sweetgum.nybg.org/vh/specimen.php?irn=2412640,2014,North America,United States of America,New York,New York Co.,"Central Park. Great Hill, southwest slope between 103rd and 104th Sts and between Adam Clayton Powell, Jr. Blvd and Central Park West",36,36,40.7959,-73.9602,,,D. E. Atha,,Capsella bursa-pastoris (L.) Medik.,Plantae,Magnoliophyta,Brassicaceae,Capsella,bursa-pastoris,,Species,,,
dd42b524-cffb-49eb-96ce-a4abe406b0f4,NY,PreservedSpecimen,2360467,14267,D. E. Atha,http://sweetgum.nybg.org/vh/specimen.php?irn=2415986,2014,North America,United States of America,New York,New York Co.,"Central Park. Great Hill, southwest slope between 103rd and 104th Sts and between Adam Clayton Powell, Jr. Blvd and Central Park West",36,36,40.7959,-73.9602,,,D. E. Atha,,Stylophorum diphyllum (Michx.) Nutt.,Plantae,Magnoliophyta,Papaveraceae,Stylophorum,diphyllum,,Species,,,
c35ef5a3-2437-4d31-a405-b94c6a54f5ee,NY,PreservedSpecimen,2360468,14268,D. E. Atha,http://sweetgum.nybg.org/vh/specimen.php?irn=2415987,2014,North America,United States of America,New York,New York Co.,"Central Park. Great Hill, southwest slope between 103rd and 104th Sts and between Adam Clayton Powell, Jr. Blvd and Central Park West",36,36,40.7959,-73.9602,,,D. E. Atha,,Stylophorum diphyllum (Michx.) Nutt.,Plantae,Magnoliophyta,Papaveraceae,Stylophorum,diphyllum,,Species,,,
71df16d4-b00e-4ebc-965e-b9755b3fb746,NY,PreservedSpecimen,2332770,14170,D. E. Atha,http://sweetgum.nybg.org/vh/specimen.php?irn=2400590,2013,North America,United States of America,New York,New York Co.,"Central Park, 79th St Transverse, between 78th St and 79th St and between 6th and 7th Avenues",34,34,40.7791,-73.9696,,,D. E. Atha,,Chenopodium album L.,Plantae,Magnoliophyta,Amaranthaceae,Chenopodium,album,,Species,,,
188513d4-b1b2-4e7b-bf38-948b0236d897,NY,PreservedSpecimen,2332767,14167,D. E. Atha,http://sweetgum.nybg.org/vh/specimen.php?irn=2400585,2013,North America,United States of America,New York,New York Co.,"Central Park, 79th St Transverse, between 78th St and 79th St and between 6th and 7th Avenues",34,34,40.7791,-73.9696,,,D. E. Atha,,Artemisia vulgaris L.,Plantae,Magnoliophyta,Asteraceae,Artemisia,vulgaris,,Species,,,
024aa997-9c10-4575-aec0-d3348a8d1ee1,NY,PreservedSpecimen,2332774,14174,D. E. Atha,http://sweetgum.nybg.org/vh/specimen.php?irn=2400603,2013,North America,United States of America,New York,New York Co.,"Central Park, 79th St Transverse, between 78th St and 79th St and between 6th and 7th Avenues",34,34,40.7791,-73.9696,,,D. E. Atha,,Lycium barbarum L.,Plantae,Magnoliophyta,Solanaceae,Lycium,barbarum,,Species,,,
4e3ad5d6-d6ce-4189-a915-8fc5b0b04f61,NY,PreservedSpecimen,2332769,14169,D. E. Atha,http://sweetgum.nybg.org/vh/specimen.php?irn=2400589,2013,North America,United States of America,New York,New York Co.,"Central Park, 79th St Transverse, between 78th St and 79th St and between 6th and 7th Avenues",34,34,40.7791,-73.9696,,,D. E. Atha,,Ambrosia artemisiifolia L.,Plantae,Magnoliophyta,Asteraceae,Ambrosia,artemisiifolia,,Species,,,
cb02d1fd-f724-4c5b-86d7-31e7e7761e9e,NY,PreservedSpecimen,2332768,14168,D. E. Atha,http://sweetgum.nybg.org/vh/specimen.php?irn=2400588,2013,North America,United States of America,New York,New York Co.,"Central Park, 79th St Transverse, between 78th St and 79th St and between 6th and 7th Avenues",34,34,40.7791,-73.9696,,,D. E. Atha,,Digitaria ischaemum (Schreb.) Muhl.,Plantae,Magnoliophyta,Poaceae,Digitaria,ischaemum,,Species,,,
1cc6cad7-fddf-417b-a519-cca17bb07c42,NY,PreservedSpecimen,2332771,14171,D. E. Atha,http://sweetgum.nybg.org/vh/specimen.php?irn=2400591,2013,North America,United States of America,New York,New York Co.,"Central Park, 79th St Transverse, between 78th St and 79th St and between 6th and 7th Avenues",34,34,40.7791,-73.9696,,,D. E. Atha,,Persicaria longiseta (Bruijn) Kitag.,Plantae,Magnoliophyta,Polygonaceae,Persicaria,longiseta,,Species,,,
4e07c719-ef7c-422d-b06f-a1026c3bb7ec,NY,PreservedSpecimen,2332772,14172,D. E. Atha,http://sweetgum.nybg.org/vh/specimen.php?irn=2400600,2013,North America,United States of America,New York,New York Co.,"Central Park, 79th St Transverse, between 78th St and 79th St and between 6th and 7th Avenues",34,34,40.7791,-73.9696,,,D. E. Atha,,Persicaria longiseta (Bruijn) Kitag.,Plantae,Magnoliophyta,Polygonaceae,Persicaria,longiseta,,Species,,,
97cdcc5f-1e57-4b1b-9b01-7af026170bfb,NY,PreservedSpecimen,2332773,14173,D. E. Atha,http://sweetgum.nybg.org/vh/specimen.php?irn=2400601,2013,North America,United States of America,New York,New York Co.,"Central Park, 79th St Transverse, between 78th St and 79th St and between 6th and 7th Avenues",34,34,40.7791,-73.9696,,,D. E. Atha,,Ligustrum obtusifolium Siebold & Zucc.,Plantae,Magnoliophyta,Oleaceae,Ligustrum,obtusifolium,,Species,,,
976f4a65-a9ec-46d2-a02c-9c8b1472fc2c,NY,PreservedSpecimen,2456562,14497,D. E. Atha,http://sweetgum.nybg.org/vh/specimen.php?irn=2691563,2014,North America,United States of America,New York,New York Co.,"Central Park. Mount, at compost Area. Between 105th and 106th Streets and between 5th and 6th Avenues",46,46,40.7945,-73.9536,GPS,25,D. E. Atha,,Hordeum leporinum Link,Plantae,Magnoliophyta,Poaceae,Hordeum,leporinum,,Species,,,
7e653820-cdd6-4555-9ace-ccac3cc0f067,NY,PreservedSpecimen,2549584,15084,D. E. Atha,http://sweetgum.nybg.org/vh/specimen.php?irn=2913741,2015,North America,United States of America,New York,New York Co.,Central Park. Ramble. Between 77th and 78th Streets and between 6th and 7th Avenues,29,29,40.7788,-73.9704,GPS,,D. E. Atha,,Tilia cordata Mill.,Plantae,Magnoliophyta,Malvaceae,Tilia,cordata,,Species,,,
3dc58dd8-37a3-4e19-a04c-1c5f86856e43,NY,PreservedSpecimen,2589669,14969,D. E. Atha,http://sweetgum.nybg.org/vh/specimen.php?irn=2890735,2015,North America,United States of America,New York,New York Co.,"Central Park. North Meadow, Recreation Center. Between 97th and 98th St and between 7th and 8th Aves",28,28,40.7912,-73.961,GPS,,D. E. Atha,,Forsythia viridissima Lindl.,Plantae,Magnoliophyta,Oleaceae,Forsythia,viridissima,,Species,,,
27d1ea6f-0741-46cb-a5f9-c9af18020757,NY,PreservedSpecimen,2549599,15099,D. E. Atha,http://sweetgum.nybg.org/vh/specimen.php?irn=2913727,2015,North America,United States of America,New York,New York Co.,"Central Park. Great Hill, Children's Glade. Between 103rd and 104th Streets and between 7th and 8th Avenues",20,20,40.7962,-73.9602,GPS,,D. E. Atha,,Festuca rubra L.,Plantae,Magnoliophyta,Poaceae,Festuca,rubra,,Species,,,
01b18ce2-be0e-4ee6-906a-df2943e7f943,NY,PreservedSpecimen,2549803,15203,D. E. Atha,http://sweetgum.nybg.org/vh/specimen.php?irn=2935483,2015,North America,United States of America,New York,New York Co.,"Central Park. Conservatory Garden, just south of gates. Between 103rd and 104th Streets and between 5th and 6th Avenues",26,26,40.7925,-73.953,,,D. E. Atha,,Agrostis perennans (Walter) Tuck.,Plantae,Magnoliophyta,Poaceae,Agrostis,perennans,,Species,,,
6ddb99e4-e19c-4110-b9db-6f91aed9c5ae,NY,PreservedSpecimen,2550094,15354,D. E. Atha,http://sweetgum.nybg.org/vh/specimen.php?irn=2966261,2015,North America,United States of America,New York,New York Co.,"Central Park. Reservoir. Between 87th and 88th Streets and 7th and 8th Avenues, east of West Drive, just west of Reservoir",48,48,40.7857,-73.9668,GPS,,D. E. Atha,,Agrostis perennans (Walter) Tuck.,Plantae,Magnoliophyta,Poaceae,Agrostis,perennans,,Species,,,
ddfeffd5-f940-4004-8920-be82a88ae446,NY,PreservedSpecimen,2236144,14144,D. E. Atha,http://sweetgum.nybg.org/vh/specimen.php?irn=2391955,2013,North America,United States of America,New York,New York Co.,"Central Park, Hallett Nature Sanctuary, between 61st and 62nd Sts and between 5th and 6th Avenues",15,15,40.7661,-73.975,,,D. E. Atha,,Agrostis perennans (Walter) Tuck.,Plantae,Magnoliophyta,Poaceae,Agrostis,perennans,,Species,,,
eb994bf5-1c5b-41ec-8527-42695bbb8027,NY,PreservedSpecimen,2920808,CP8,R. Decandido,http://sweetgum.nybg.org/vh/specimen.php?irn=3382449,2006,North America,United States of America,New York,New York Co.,Central Park. Baseball field (outfield),,,,,,,D. E. Atha,,Plantago rugelii Decne.,Plantae,Magnoliophyta,Plantaginaceae,Plantago,rugelii,,Species,,,
5b0f5263-378a-4689-b7f9-9fa388771f2f,NY,PreservedSpecimen,2920822,CP22,R. Decandido,http://sweetgum.nybg.org/vh/specimen.php?irn=3383883,2006,North America,United States of America,New York,New York Co.,"Central Park. Wildflower meadow, SW side",,,,,,,D. E. Atha,,Ampelopsis glandulosa (Wall.) Momiy.,Plantae,Magnoliophyta,Vitaceae,Ampelopsis,glandulosa,,Species,,,
f6a9c2ba-f46a-4897-93d2-3f204aa339cf,NY,PreservedSpecimen,2844435,CP35,R. Decandido,http://sweetgum.nybg.org/vh/specimen.php?irn=3382463,2006,North America,United States of America,New York,New York Co.,Central Park. Cobblestone area at 100 street at CPW (Central Park West) entrance,,,,,,,D. E. Atha,,Parietaria pensylvanica Muhl. ex Willd.,Plantae,Magnoliophyta,Urticaceae,Parietaria,pensylvanica,,Species,,,
9e9da60d-554c-4253-874a-0351401fa66c,NY,PreservedSpecimen,2844447,CP47,R. Decandido,http://sweetgum.nybg.org/vh/specimen.php?irn=3382465,2006,North America,United States of America,New York,New York Co.,"Central Park. Along fence, 75 meters east of North Meadow complex",,,,,,,D. E. Atha,,Centaurea jacea L.,Plantae,Magnoliophyta,Asteraceae,Centaurea,jacea,,Species,,,
9c0a0cc8-c3c1-4d1c-b11f-2c19bf1131fd,NY,PreservedSpecimen,2844448,CP48,R. Decandido,http://sweetgum.nybg.org/vh/specimen.php?irn=3382466,2006,North America,United States of America,New York,New York Co.,Central Park. Ramble near stone arch,,,,,,,D. E. Atha,,Aralia elata (Miq.) Seem.,Plantae,Magnoliophyta,Araliaceae,Aralia,elata,,Species,,,
9155312e-38e0-470a-9d35-96d2d2eb65b8,NY,PreservedSpecimen,2920935,CP55,R. Decandido,http://sweetgum.nybg.org/vh/specimen.php?irn=3383818,2006,North America,United States of America,New York,New York Co.,Central Park. Along east side of reservoir,,,,,,,D. E. Atha,,Lactuca serriola L.,Plantae,Magnoliophyta,Asteraceae,Lactuca,serriola,,Species,,,
0cac473a-94cf-4bd0-9818-7361c5d133a5,NY,PreservedSpecimen,2920943,CP63,R. Decandido,http://sweetgum.nybg.org/vh/specimen.php?irn=3382497,2006,North America,United States of America,New York,New York Co.,Central Park. Along Harlem Meer,,,,,,,D. E. Atha,,Persicaria pennsylvanica Small,Plantae,Magnoliophyta,Polygonaceae,Persicaria,pennsylvanica,,Species,,,
dbcdc6ab-e668-4a2d-9326-0fb83824fad3,NY,PreservedSpecimen,2920944,CP71,R. Decandido,http://sweetgum.nybg.org/vh/specimen.php?irn=3383880,2006,North America,United States of America,New York,New York Co.,"Central Park. Wildflower meadow, SW side",,,,,,,D. E. Atha,,Ampelopsis glandulosa (Wall.) Momiy.,Plantae,Magnoliophyta,Vitaceae,Ampelopsis,glandulosa,,Species,,,
4209def1-d818-4bb0-a521-6e911bd48a28,NY,PreservedSpecimen,2920942,CP72,R. Decandido,http://sweetgum.nybg.org/vh/specimen.php?irn=3383888,2006,North America,United States of America,New York,New York Co.,"Central Park. Turtle Pond, south side",,,,,,,D. E. Atha,,Persicaria maculosa Gray,Plantae,Magnoliophyta,Polygonaceae,Persicaria,maculosa,,Species,,,
4d213662-7387-447d-a59d-07429408b903,NY,PreservedSpecimen,2920827,CP77,R. Decandido,http://sweetgum.nybg.org/vh/specimen.php?irn=3382519,2006,North America,United States of America,New York,New York Co.,"Central Park. In North Woods, on NW side of north path",,,,,,,D. E. Atha,,Aralia elata (Miq.) Seem.,Plantae,Magnoliophyta,Araliaceae,Aralia,elata,,Species,,,
ba330a46-aa26-45e3-9d00-abc5208914c2,NY,PreservedSpecimen,2920834,CP84,R. Decandido,http://sweetgum.nybg.org/vh/specimen.php?irn=3382592,2006,North America,United States of America,New York,New York Co.,Central Park. Wildflower meadow,,,,,,,D. E. Atha,,Physostegia virginiana subsp. praemorsa (Shinners) P.D.Cantino,Plantae,Magnoliophyta,Lamiaceae,Physostegia,virginiana,praemorsa,Subspecies,(Shinners) P.D.Cantino,,
9bb81793-7a6e-4901-aad9-237bc54fa456,NY,PreservedSpecimen,2920845,CP95,R. Decandido,http://sweetgum.nybg.org/vh/specimen.php?irn=3382512,2006,North America,United States of America,New York,New York Co.,Central Park. Near Belvedere Castle,,,,,,,D. E. Atha,,Prunus virginiana L.,Plantae,Magnoliophyta,Rosaceae,Prunus,virginiana,,Species,,,
5ea2e2f8-e2f7-4147-81f8-39704cc9ba20,NY,PreservedSpecimen,2920849,CP99,R. Decandido,http://sweetgum.nybg.org/vh/specimen.php?irn=3382521,2006,North America,United States of America,New York,New York Co.,"Central Park.Up the hill from the Boat House on the right, just off path",,,,,,,D. E. Atha,,Allium ursinum L.,Plantae,Magnoliophyta,Amaryllidaceae,Allium,ursinum,,Species,,,
85ecd914-ecf3-4101-a04d-9ed4c9ae0f8a,NY,PreservedSpecimen,2589674,14974,D. E. Atha,http://sweetgum.nybg.org/vh/specimen.php?irn=2890740,2015,North America,United States of America,New York,New York Co.,Central Park. Great Hill. Slope on south side of hill.  Between 103rd and 104th Sts and between 7th and 8th Aves,37,37,40.796,-73.9599,GPS,,D. E. Atha,,Poa annua L.,Plantae,Magnoliophyta,Poaceae,Poa,annua,,Species,,,
